city,country,latitude,longitude,population
"A Coruña","Spain",43.3713,-8.4188,370610
"Aachen","Germany",50.7762,6.0838,247380
"Aalborg","Denmark",57.0337,9.9166,122219
"Aalen","Germany",48.8372,10.0936,68456
"Aalst","Belgium",50.9333,4.0333,85715
"Aarhus","Denmark",56.1572,10.2107,237551
"Aba","Nigeria",5.1167,7.3667,500183
"Abaetetuba","Brazil",-1.7178,-48.8828,159080
"Abaeté","Brazil",-19.1583,-45.4522,800000
"Abakan","Russia",53.7167,91.4167,181709
"Abancay","Peru",-13.6333,-72.8833,72277
"Abbotsford","Canada",49.0500,-122.3167,141397
"Abbottabad","Pakistan",34.1500,73.2167,148587
"Abdul Hakim","Pakistan",30.5522,72.1278,51494
"Abengourou","Côte D’Ivoire",6.7297,-3.4964,104020
"Abeokuta","Nigeria",7.1500,3.3500,888924
"Aberdeen","United Kingdom",57.1500,-2.1100,214610
"Abertawe","United Kingdom",51.6167,-3.9500,245508
"Abhā","Saudi Arabia",18.2167,42.5000,236157
"Abidjan","Côte D’Ivoire",5.3364,-4.0267,4980000
"Abiko","Japan",35.8642,140.0282,130290
"Abilene","United States",32.4543,-99.7384,123420
"Abington","United States",40.1108,-75.1146,55459
"Abnūb","Egypt",27.2667,31.1500,67526
"Abohar","India",30.1204,74.2900,130603
"Abomey","Benin",7.1853,1.9914,82154
"Abu Dhabi","United Arab Emirates",24.4781,54.3686,1000000
"Abuja","Nigeria",9.0556,7.4914,1235880
"Abuyog","Philippines",10.7458,125.0122,59571
"Abéché","Chad",13.8331,20.8347,76492
"Abū Ḩamad","Sudan",19.5370,33.3260,50000
"Abū Ḩulayfah","Kuwait",29.3333,48.0000,164212
"Acacías","Colombia",3.9889,-73.7647,75252
"Acajutla","El Salvador",13.5928,-89.8275,92000
"Acambay","Mexico",19.9539,-99.8431,56847
"Acapulco de Juárez","Mexico",16.8636,-99.8825,687608
"Acaraú","Brazil",-2.8858,-40.1200,61210
"Acarigua","Venezuela",9.5597,-69.2019,195637
"Acará","Brazil",-1.9608,-48.1969,55669
"Acatzingo","Mexico",18.9817,-97.7822,52078
"Acayucan","Mexico",17.9422,-94.9103,83817
"Accra","Ghana",5.6037,-0.1870,2291352
"Acerra","Italy",40.9500,14.3667,59910
"Achinsk","Russia",56.2817,90.5039,105264
"Acireale","Italy",37.6125,15.1656,52269
"Acopiara","Brazil",-6.0950,-39.4528,53135
"Acton","United Kingdom",51.5135,-0.2707,62480
"Actopan","Mexico",20.2670,-98.9330,56429
"Acámbaro","Mexico",20.0361,-100.7314,57972
"Ad Dakhla","Morocco",23.7141,-15.9368,89292
"Ad Dammām","Saudi Arabia",26.4333,50.1000,903312
"Ad Diwem","Sudan",13.9904,32.3000,87068
"Ad Dīwānīyah","Iraq",31.9892,44.9247,391600
"Adachi","Japan",35.7833,139.8000,682326
"Adana","Turkey",37.0000,35.3250,2220125
"Addis Ababa","Ethiopia",9.0272,38.7369,3041002
"Adelaide","Australia",-34.9289,138.6011,1345777
"Aden","Yemen",12.8000,45.0333,507355
"Adilābād","India",19.6667,78.5333,117167
"Ado-Ekiti","Nigeria",7.6167,5.2167,446749
"Adrar","Algeria",27.8742,-0.2939,68276
"Adıyaman","Turkey",37.7644,38.2763,304615
"Aflao","Ghana",6.1188,1.1946,66546
"Afragola","Italy",40.9167,14.3167,64817
"Afyonkarahisar","Turkey",38.7581,30.5386,299673
"Agadez","Niger",16.9959,7.9828,117770
"Agadir","Morocco",30.4167,-9.5833,421844
"Agartala","India",23.8333,91.2667,522613
"Agboville","Côte D’Ivoire",5.9333,-4.2167,81770
"Ageoshimo","Japan",35.9775,139.5933,226616
"Agoo","Philippines",16.3220,120.3647,63692
"Agrigento","Italy",37.3111,13.5765,59329
"Agua Prieta","Mexico",31.3258,-109.5489,79138
"Aguachica","Colombia",8.3067,-73.6153,109621
"Aguascalientes","Mexico",21.8760,-102.2960,934424
"Agía Paraskeví","Greece",38.0053,23.8208,59704
"Ahar","Iran",38.4750,47.0603,100641
"Ahlen","Germany",51.7633,7.8911,52582
"Ahmadnagar","India",19.0833,74.7333,350859
"Ahmadpur East","Pakistan",29.1453,71.2617,128112
"Ahmedabad","India",23.0300,72.5800,7410000
"Ahuachapán","El Salvador",13.9214,-89.8450,110511
"Ahvāz","Iran",31.3203,48.6692,1184788
"Aihua","China",24.4629,100.1350,106054
"Ailan Mubage","China",43.9167,81.3167,526745
"Airdrie","Canada",51.2917,-114.0144,61581
"Aisai","Japan",35.1500,136.7333,60914
"Ait Ali","Morocco",30.1739,-9.4881,76646
"Ait Melloul","Morocco",30.3342,-9.4972,171847
"Aix-en-Provence","France",43.5263,5.4454,142482
"Ajaccio","France",41.9267,8.7369,70659
"Ajax","Canada",43.8583,-79.0364,119677
"Ajdābiyā","Libya",30.7700,20.2200,143833
"Ajmer","India",26.4680,74.6390,542321
"Ajuy","Philippines",11.1725,123.0196,52268
"Akbou","Algeria",36.4667,4.5333,52282
"Aketi","Congo (Kinshasa)",2.7405,23.7800,58601
"Akhmīm","Egypt",26.5642,31.7461,101509
"Akiruno","Japan",35.7289,139.2942,79600
"Akishima","Japan",35.7056,139.3536,112110
"Akita","Japan",39.7197,140.1025,302984
"Akola","India",20.7333,77.0000,425817
"Akron","United States",41.0798,-81.5219,565208
"Aksaray","Turkey",38.3686,34.0297,295351
"Aksu","China",41.1664,80.2500,535657
"Akure","Nigeria",7.2500,5.1950,420594
"Akçakale","Turkey",36.7108,38.9478,113194
"Al Aḩmadī","Kuwait",29.0769,48.0838,68763
"Al Bayḑā’","Libya",32.7628,21.7550,250000
"Al Başrah","Iraq",30.4889,47.8100,1225793
"Al Bāḩah","Saudi Arabia",20.0129,41.4677,95089
"Al Fallūjah","Iraq",33.3500,43.7833,326471
"Al Fayyūm","Egypt",29.3000,30.8333,315940
"Al Fqih Ben Çalah","Morocco",32.5000,-6.7000,102019
"Al Fujayrah","United Arab Emirates",25.1308,56.3347,93673
"Al Fāw","Iraq",29.9800,48.4700,105080
"Al Ghardaqah","Egypt",27.2578,33.8117,160901
"Al Hoceïma","Morocco",35.2472,-3.9322,56716
"Al Hufūf","Saudi Arabia",25.3608,49.5997,637389
"Al Jahrā’","Kuwait",29.3375,47.6581,194193
"Al Jubayl","Saudi Arabia",27.0046,49.6460,237274
"Al Kharj","Saudi Arabia",24.1556,47.3120,298428
"Al Khawr","Qatar",25.6900,51.5100,202031
"Al Khmissat","Morocco",33.8100,-6.0600,131542
"Al Khubar","Saudi Arabia",26.3000,50.2167,219679
"Al Khums","Libya",32.6604,14.2600,201943
"Al Kūfah","Iraq",32.0300,44.4000,166100
"Al Kūt","Iraq",32.4907,45.8304,321521
"Al Mafraq","Jordan",32.2833,36.2333,57118
"Al Manāqil","Sudan",14.2504,32.9800,151827
"Al Manşūrah","Egypt",31.0500,31.3833,960423
"Al Marj","Libya",32.5005,20.8300,169540
"Al Maḩallah al Kubrá","Egypt",30.9667,31.1667,543271
"Al Minyā","Egypt",28.0833,30.7500,236043
"Al Mubarraz","Saudi Arabia",25.4100,49.5808,298562
"Al Mukallā","Yemen",14.5333,49.1333,144137
"Al Musayyib","Iraq",32.7786,44.2900,76454
"Al Muḩarraq","Bahrain",26.2500,50.6167,75000
"Al Qaţīf","Saudi Arabia",26.5196,50.0115,368892
"Al Qāmishlī","Syria",37.0500,41.2167,184231
"Al Qūşīyah","Egypt",27.4403,30.8183,69388
"Al Ḩajar al Aswad","Syria",33.4581,36.3053,101827
"Al Ḩasakah","Syria",36.5117,40.7422,188160
"Al Ḩawīyah","Saudi Arabia",21.4411,40.4975,148151
"Al Ḩayy","Iraq",32.1742,46.0433,82900
"Al Ḩillah","Iraq",32.4833,44.4333,541034
"Al Ḩillah","Saudi Arabia",23.4895,46.7564,594605
"Al Ḩudaydah","Yemen",14.8022,42.9511,548433
"Al ‘Amārah","Iraq",31.8416,47.1512,345007
"Al ‘Aqabah","Jordan",29.5167,35.0000,140000
"Al ‘Arīsh","Egypt",31.1249,33.8006,178651
"Al ‘Ayn","United Arab Emirates",24.2075,55.7447,766936
"Alabel","Philippines",6.1023,125.2868,80359
"Alafaya","United States",28.5278,-81.1865,91068
"Alagoinhas","Brazil",-12.1356,-38.4192,124070
"Alamada","Philippines",7.3868,124.5534,64596
"Alameda","United States",37.7670,-122.2672,77624
"Alaminos","Philippines",16.1553,119.9808,89708
"Alangalang","Philippines",11.2000,124.8500,55235
"Alanya","Turkey",36.5436,31.9997,312319
"Alba Iulia","Romania",46.0764,23.5728,63536
"Albacete","Spain",38.9956,-1.8558,174336
"Albany","United States",31.5776,-84.1762,89217
"Albany","United States",42.6664,-73.7987,586383
"Albany","United States",44.6274,-123.0966,62880
"Alberton","South Africa",-26.2672,28.1219,121536
"Albuquerque","United States",35.1053,-106.6464,761195
"Alcalá de Guadaira","Spain",37.3333,-5.8500,75533
"Alchevsk","Ukraine",48.4672,38.7983,105398
"Alcorcón","Spain",40.3500,-3.8333,172384
"Alcoy","Spain",38.6983,-0.4736,59354
"Alegrete","Brazil",-29.7839,-55.7911,77653
"Aleksandrov","Russia",56.3936,38.7150,59328
"Aleksin","Russia",54.5000,37.0667,57892
"Alenquer","Brazil",-1.9419,-54.7378,57092
"Aleppo","Syria",36.2000,37.1500,1916781
"Alessandria","Italy",44.9133,8.6200,93980
"Alexandria","Egypt",31.2000,29.9167,4870000
"Alexandria","United States",31.2923,-92.4702,80129
"Alexandria","United States",38.8185,-77.0861,159428
"Alexandroúpoli","Greece",40.8500,25.8667,57812
"Alfenas","Brazil",-21.4289,-45.9469,80494
"Alfonso","Philippines",14.1379,120.8552,51839
"Algeciras","Spain",36.1275,-5.4539,123078
"Algiers","Algeria",36.7764,3.0586,3415811
"Alhambra","United States",34.0840,-118.1355,83750
"Aliaga","Philippines",15.4988,120.8410,63543
"Aliağa","Turkey",38.7998,26.9720,95392
"Alicante","Spain",38.3453,-0.4831,337482
"Alicia","Philippines",16.7787,121.6972,71504
"Aliso Viejo","United States",33.5792,-117.7289,50887
"Allahābād","India",25.4550,81.8400,1201000
"Allanmyo","Myanmar",19.3783,95.2279,57897
"Allen","United States",33.1088,-96.6735,105623
"Allentown","United States",40.5961,-75.4756,683794
"Alleppey","India",9.5004,76.3700,176783
"Almada","Portugal",38.6803,-9.1583,174030
"Almaty","Kazakhstan",43.2500,76.9000,1916822
"Almere","Netherlands",52.3758,5.2256,207904
"Almería","Spain",36.8403,-2.4681,201322
"Almetyevsk","Russia",54.9000,52.3000,154262
"Almirante Tamandaré","Brazil",-25.3250,-49.3100,120041
"Aloha","United States",45.4920,-122.8726,54287
"Alor Setar","Malaysia",6.1167,100.3667,217000
"Alpharetta","United States",34.0704,-84.2739,67213
"Alphen aan den Rijn","Netherlands",52.1333,4.6500,110986
"Alta Floresta","Brazil",-9.8758,-56.0858,50189
"Altamira","Brazil",-3.2028,-52.2058,115969
"Altamira","Mexico",22.3375,-97.8694,59536
"Altamura","Italy",40.8167,16.5500,70514
"Altay","China",47.8666,88.1166,142000
"Alto Hospicio","Chile",-20.2500,-70.1167,108375
"Alton","United States",38.9034,-90.1523,78905
"Altoona","United States",40.5082,-78.4007,74829
"Altrincham","United Kingdom",53.3838,-2.3547,52419
"Alvorada","Brazil",-29.9900,-51.0839,211352
"Alwar","India",27.5667,76.6167,341422
"Alīgarh","India",27.8800,78.0800,1131160
"Alīgūdarz","Iran",33.4006,49.6947,78690
"Alīpur Duār","India",26.4837,89.5667,127342
"Amadora","Portugal",38.7500,-9.2333,175136
"Amalāpuram","India",16.5833,82.0167,53231
"Amarillo","United States",35.1988,-101.8311,205603
"Amasya","Turkey",40.6500,35.8333,149084
"Amatitlán","Guatemala",14.4741,-90.6247,125000
"Ambato","Ecuador",-1.2417,-78.6197,165185
"Ambon","Indonesia",-3.7050,128.1700,372249
"Ambāla","India",30.3786,76.7725,146787
"Amealco","Mexico",20.1881,-100.1439,56457
"Americana","Brazil",-22.7392,-47.3314,479472
"Ames","United States",42.0259,-93.6215,67910
"Amherst","United States",43.0117,-78.7569,125509
"Amiens","France",49.8920,2.2990,136105
"Amman","Jordan",31.9500,35.9333,4007526
"Amozoc","Mexico",19.0333,-98.0500,60517
"Amritsar","India",31.6167,74.8500,1132383
"Amrāvati","India",20.9333,77.7500,549370
"Amsterdam","Netherlands",52.3667,4.8833,862965
"An Nabk","Syria",34.0250,36.7344,52502
"An Najaf","Iraq",32.0290,44.3396,724700
"An Nuhūd","Sudan",12.6904,28.4200,108008
"An Nāşirīyah","Iraq",31.0439,46.2575,541600
"Anaco","Venezuela",9.4333,-64.4667,162704
"Anaheim","United States",33.8390,-117.8572,350365
"Anakāpalle","India",17.6800,83.0200,86519
"Ananindeua","Brazil",-1.3658,-48.3719,535547
"Anantapur","India",14.6833,77.6000,267161
"Anapa","Russia",44.8944,37.3167,81447
"Anchorage","United States",61.1508,-149.1091,288000
"Ancona","Italy",43.6167,13.5167,100924
"Anda","China",46.4078,125.3252,520000
"Andahuaylas","Peru",-13.6575,-73.3833,80000
"Anderlecht","Belgium",50.8392,4.3297,120887
"Anderson","United States",34.5211,-82.6479,78512
"Anderson","United States",40.0891,-85.6893,85992
"Andijon","Uzbekistan",40.7000,72.3500,441700
"Andong","Korea, South",36.5656,128.7250,162180
"Andradina","Brazil",-20.8958,-51.3789,57250
"Andria","Italy",41.2317,16.3083,99857
"Andīmeshk","Iran",32.4500,48.3500,135116
"Angarsk","Russia",52.5667,103.9167,226374
"Angat","Philippines",14.9281,121.0293,59237
"Angeles City","Philippines",15.1472,120.5847,411634
"Angers","France",47.4736,-0.5542,152960
"Angono","Philippines",14.5234,121.1536,113283
"Angra dos Reis","Brazil",-23.0069,-44.3178,188276
"Angren","Uzbekistan",41.0167,70.1333,126962
"Anguo","China",38.4177,115.3204,370317
"Anju","Korea, North",39.6167,125.6667,240117
"Anjōmachi","Japan",34.9667,137.0833,188801
"Ankang","China",32.6877,109.0235,1100000
"Ankara","Turkey",39.9300,32.8500,5503985
"Ankeny","United States",41.7285,-93.6033,67355
"Anlu","China",31.2575,113.6783,720000
"Ann Arbor","United States",42.2755,-83.7312,322267
"Annaba","Algeria",36.9000,7.7667,257359
"Annaka","Japan",36.3264,138.8872,54602
"Annecy","France",45.9160,6.1330,126924
"Anniston","United States",33.6712,-85.8136,73501
"Anqing","China",30.5000,117.0333,4723000
"Anqiu","China",36.3619,119.1072,947723
"Ansan","Korea, South",37.3236,126.8219,652800
"Anseong","Korea, South",37.0078,127.2797,194765
"Anshan","China",41.1066,122.9895,3645884
"Anshun","China",26.2456,105.9340,2297612
"Antalya","Turkey",36.9081,30.6956,2426356
"Antananarivo","Madagascar",-18.9386,47.5214,2610000
"Antibes","France",43.5808,7.1239,72999
"Antigua Guatemala","Guatemala",14.5567,-90.7337,59091
"Antioch","United States",37.9789,-121.7958,302419
"Antipolo","Philippines",14.5842,121.1763,776386
"Antofagasta","Chile",-23.6464,-70.3980,348517
"Antony","France",48.7539,2.2975,62570
"Antratsyt","Ukraine",48.1167,39.0833,54640
"Antsirabe","Madagascar",-19.8667,47.0333,257163
"Antsiranana","Madagascar",-12.2765,49.3115,82937
"Antwerp","Belgium",51.2206,4.4003,920000
"António Enes","Mozambique",-16.2308,39.9105,57835
"Anuradhapura","Sri Lanka",8.3350,80.4108,63208
"Anyang","Korea, South",37.3925,126.9269,573296
"Anzhero-Sudzhensk","Russia",56.0833,86.0333,76217
"Anzio","Italy",41.4472,12.6283,52381
"Anápolis","Brazil",-16.3269,-48.9528,366491
"Aomori","Japan",40.8222,140.7475,271962
"Apalit","Philippines",14.9496,120.7587,107965
"Apapa","Nigeria",6.4489,3.3589,217362
"Aparri","Philippines",18.3550,121.6419,65649
"Apaseo el Alto","Mexico",20.4500,-100.6167,64443
"Apatity","Russia",67.5675,33.3933,55713
"Apatzingan de la Constitucion","Mexico",19.0886,-102.3508,128250
"Apeldoorn","Netherlands",52.2100,5.9700,161156
"Apex","United States",35.7239,-78.8728,59300
"Apizaco","Mexico",19.4167,-98.1333,81565
"Apopa","El Salvador",13.8000,-89.1833,131286
"Apopka","United States",28.7014,-81.5304,53447
"Apple Valley","United States",34.5328,-117.2104,73453
"Apple Valley","United States",44.7457,-93.2006,55135
"Appleton","United States",44.2779,-88.3891,220570
"Apucarana","Brazil",-23.5508,-51.4608,136234
"Aqsū","Kazakhstan",52.0333,76.9167,69354
"Aqtaū","Kazakhstan",43.6500,51.1500,183350
"Aqtöbe","Kazakhstan",50.3000,57.1667,387807
"Aquiraz","Brazil",-3.9008,-38.3908,77717
"Ar Ramādī","Iraq",33.4258,43.2992,456853
"Ar Raqqah","Syria",35.9500,39.0167,299824
"Ar Rastan","Syria",34.9167,36.7333,61176
"Aracaju","Brazil",-10.9111,-37.0717,685356
"Aracati","Brazil",-4.5619,-37.7700,72727
"Araci","Brazil",-11.3328,-38.9669,56370
"Arad","Romania",46.1667,21.3167,159074
"Araguari","Brazil",-18.6489,-48.1869,117825
"Araguaína","Brazil",-7.1908,-48.2069,183381
"Arakawa","Japan",35.7333,139.7833,217891
"Arao","Japan",32.9867,130.4333,50570
"Arapiraca","Brazil",-9.7525,-36.6611,187668
"Arapongas","Brazil",-23.4189,-51.4239,124810
"Arar","Saudi Arabia",30.9833,41.0167,167057
"Araranguá","Brazil",-28.9350,-49.4858,68867
"Araraquara","Brazil",-21.7939,-48.1758,226508
"Araras","Brazil",-22.3569,-47.3839,128895
"Araripina","Brazil",-7.5500,-40.5667,84864
"Araruama","Brazil",-22.8728,-42.3428,134293
"Arauca","Colombia",7.0903,-70.7617,96814
"Araucária","Brazil",-25.5928,-49.4100,146214
"Araxá","Brazil",-19.5928,-46.9408,107337
"Arayat","Philippines",15.1493,120.7692,133492
"Araçatuba","Brazil",-21.2089,-50.4328,192757
"Arcadia","United States",34.1342,-118.0373,57939
"Arcoverde","Brazil",-8.4189,-37.0539,74822
"Ardabīl","Iran",38.2500,48.3000,482632
"Arden-Arcade","United States",38.6034,-121.3810,102864
"Areguá","Paraguay",-25.3000,-57.4169,77652
"Arequipa","Peru",-16.3988,-71.5369,1008290
"Arezzo","Italy",43.4631,11.8781,99419
"Argao","Philippines",9.8833,123.6000,72366
"Argenteuil","France",48.9500,2.2500,110210
"Ariana","Tunisia",36.8625,10.1956,114486
"Arica","Chile",-18.4784,-70.3211,202131
"Ariquemes","Brazil",-9.9161,-63.0408,109523
"Arjona","Colombia",10.2550,-75.3447,78070
"Arkhangelsk","Russia",64.5500,40.5333,351488
"Arles","France",43.6767,4.6278,52548
"Arlington","United States",32.6998,-97.1250,398854
"Arlington","United States",38.8786,-77.1011,233464
"Arlington Heights","United States",42.0955,-87.9825,74760
"Arlit","Niger",18.8200,7.3300,100000
"Armant","Egypt",25.6167,32.5333,76457
"Armavir","Russia",45.0000,41.1167,190709
"Armenia","Colombia",4.5389,-75.6725,301226
"Armūr","India",18.7900,78.2900,64023
"Arnhem","Netherlands",51.9833,5.9167,148070
"Arnsberg","Germany",51.3967,8.0644,73628
"Arona","Spain",28.0996,-16.6809,82777
"Aroroy","Philippines",12.5125,123.3989,86168
"Arrecife","Spain",28.9625,-13.5506,64645
"Arroyo Grande","United States",35.1241,-120.5845,54177
"Arroyo Naranjo","Cuba",23.0436,-82.3328,210053
"Arsenyev","Russia",44.1667,133.2667,52471
"Artemisa","Cuba",22.8136,-82.7633,59130
"Artur Nogueira","Brazil",-22.5731,-47.1725,50246
"Artëm","Russia",43.3500,132.1833,106692
"Arua","Uganda",3.0300,30.9100,250000
"Arujá","Brazil",-23.3967,-46.3211,83939
"Arusha","Tanzania",-3.3667,36.6833,416442
"Arvada","United States",39.8321,-105.1511,121272
"Arzamas","Russia",55.3833,43.8000,104547
"Arāk","Iran",34.0800,49.7000,484212
"As Salamīyah","Syria",35.0111,37.0531,110683
"As Salţ","Jordan",32.0333,35.7333,88900
"As Samāwah","Iraq",31.3167,45.2833,215000
"As Sulaymānīyah","Iraq",35.5500,45.4333,656100
"As Suwaydā’","Syria",32.7000,36.5667,64730
"As Sīb","Oman",23.6802,58.1825,237816
"Asahi","Japan",35.7203,140.6467,63507
"Asahikawa","Japan",43.7706,142.3650,331392
"Asan","Korea, South",36.3500,126.9167,319929
"Asbest","Russia",57.0000,61.4667,64091
"Aschaffenburg","Germany",49.9757,9.1478,70527
"Asenovgrad","Bulgaria",42.0082,24.8773,59793
"Ash Shaykh ‘Uthmān","Yemen",12.8866,45.0279,105248
"Ash Shaţrah","Iraq",31.4175,46.1772,161949
"Ash Shiḩr","Yemen",14.7608,49.6069,68313
"Ashdod","Israel",31.7978,34.6503,220174
"Asheville","United States",35.5704,-82.5536,312507
"Ashford","United Kingdom",51.1465,0.8676,74204
"Ashgabat","Turkmenistan",37.9500,58.3833,1031992
"Ashino","Japan",42.9750,144.3747,198566
"Ashqelon","Israel",31.6658,34.5664,134454
"Asingan","Philippines",16.0023,120.6695,57355
"Asker","Norway",59.8331,10.4392,61523
"Asmara","Eritrea",15.3333,38.9167,963000
"Aspen Hill","United States",39.0928,-77.0823,53049
"Assab","Eritrea",13.0078,42.7411,74405
"Assen","Netherlands",52.9967,6.5625,62237
"Assis","Brazil",-22.6619,-50.4119,101597
"Asti","Italy",44.9000,8.2069,76211
"Astrakhan","Russia",46.3333,48.0167,532504
"Asunción","Paraguay",-25.3000,-57.6333,1870000
"Aswān","Egypt",24.0889,32.8997,267913
"Asyūţ","Egypt",27.1869,31.1714,389307
"At Tall","Syria",33.6103,36.3106,63554
"Atakpamé","Togo",7.5300,1.1200,80683
"Atascocita","United States",29.9777,-95.1953,81557
"Atbara","Sudan",17.7167,33.9833,139768
"Ath Thawrah","Syria",35.8344,38.5464,84000
"Athens","Greece",37.9842,23.7281,664046
"Athens","United States",33.9508,-83.3689,141532
"Athi River","Kenya",-1.4500,36.9833,81302
"Atibaia","Brazil",-23.1172,-46.5506,137187
"Atimonan","Philippines",14.0036,121.9199,63432
"Atlanta","United States",33.7627,-84.4224,5449398
"Atlantic City","United States",39.3797,-74.4527,237054
"Attock Khurd","Pakistan",33.7667,72.3667,97374
"Atushi","China",39.7114,76.1753,240368
"Atyraū","Kazakhstan",47.1167,51.8833,163221
"Aubervilliers","France",48.9131,2.3831,86375
"Auburn","United States",32.6087,-85.4899,92777
"Auburn","United States",47.3039,-122.2108,81464
"Auckland","New Zealand",-36.8500,174.7833,1470100
"Augsburg","Germany",48.3717,10.8983,295135
"Augusta","United States",33.3645,-82.0708,390809
"Aulnay-sous-Bois","France",48.9386,2.4906,85740
"Aurangābād","India",19.8800,75.3200,1371330
"Aurangābād","India",24.7704,84.3800,95929
"Aurora","Canada",44.0000,-79.4667,55445
"Aurora","Philippines",13.3500,122.5167,61473
"Aurora","Philippines",7.9484,123.5819,50755
"Aurora","United States",39.7087,-104.7273,379289
"Aurora","United States",41.7637,-88.2901,197757
"Austin","United States",30.3004,-97.7522,1687311
"Autlán de Navarro","Mexico",19.7667,-104.3667,60572
"Avaré","Brazil",-23.0986,-48.9258,81285
"Aveiro","Portugal",40.6389,-8.6553,78450
"Avellino","Italy",40.9153,14.7897,53908
"Aversa","Italy",40.9730,14.2065,52794
"Avignon","France",43.9500,4.8075,93671
"Avilés","Spain",43.5561,-5.9083,77791
"Avondale","United States",33.3858,-112.3236,227289
"Awka","Nigeria",6.2000,7.0667,301657
"Ayacucho","Peru",-13.1631,-74.2244,180766
"Aydın","Turkey",37.8481,27.8453,191037
"Aylesbury","United Kingdom",51.8168,-0.8124,58740
"Az Zaqāzīq","Egypt",30.5667,31.5000,302840
"Az Zarqā’","Jordan",32.0833,36.1000,481300
"Az Zubaydīyah","Iraq",32.7588,45.1773,70000
"Az Zubayr","Iraq",30.3892,47.7081,370000
"Az Zāwīyah","Libya",32.7604,12.7200,200000
"Azare","Nigeria",11.6804,10.1900,105687
"Azov","Russia",47.1000,39.4167,80721
"Azrou","Morocco",33.4300,-5.2100,54350
"Azua","Dominican Republic",18.4600,-70.7400,128264
"Azul","Argentina",-36.7833,-59.8500,55728
"Azumino","Japan",36.3039,137.9056,93927
"Azzaba","Algeria",36.7333,7.1000,56922
"Açailandia","Brazil",-4.9469,-47.5050,113121
"Açu","Brazil",-5.5769,-36.9089,58384
"Aïn Harrouda","Morocco",33.6372,-7.4483,62420
"Aïn Oussera","Algeria",35.4489,2.9044,101239
"Aïn Sefra","Algeria",32.7500,-0.5833,63420
"Ağrı","Turkey",39.7225,43.0544,149188
"Aş Şuwayḩirah as Sāḩil","Oman",24.3620,56.7344,151349
"Aţ Ţā’if","Saudi Arabia",21.2667,40.4167,579970
"Baao","Philippines",13.4535,123.3654,58849
"Babahoyo","Ecuador",-1.8167,-79.5167,90191
"Babruysk","Belarus",53.1500,29.2333,212200
"Babylon","United States",40.6924,-73.3585,211207
"Bacabal","Brazil",-4.2250,-44.7800,100014
"Bacacay","Philippines",13.2925,123.7917,68906
"Bacolod","Philippines",10.6765,122.9509,561875
"Bacoor","Philippines",14.4624,120.9645,600609
"Bacău","Romania",46.5833,26.9167,144307
"Bad Homburg","Germany",50.2292,8.6105,54248
"Bad Kreuznach","Germany",49.8469,7.8669,50948
"Bad Salzuflen","Germany",52.0875,8.7506,54127
"Badajoz","Spain",38.8803,-6.9753,150984
"Badalona","Spain",41.4333,2.2333,223166
"Bade","Taiwan",24.9575,121.2989,172065
"Baden-Baden","Germany",48.7619,8.2408,55123
"Badvel","India",14.7500,79.0500,70626
"Bafang","Cameroon",5.1704,10.1800,93145
"Bafia","Cameroon",4.7425,11.2247,69270
"Bafoussam","Cameroon",5.4667,10.4167,290768
"Bafra","Turkey",41.5682,35.9069,97452
"Baganga","Philippines",7.5752,126.5585,56241
"Baggao","Philippines",17.8894,121.8709,82782
"Baghdad","Iraq",33.3500,44.4167,5796000
"Bagheria","Italy",38.0833,13.5000,55047
"Baghlān","Afghanistan",36.1328,68.7000,73031
"Bago","Myanmar",17.3433,96.4981,284179
"Bago","Philippines",10.5388,122.8384,170981
"Baguio City","Philippines",16.4152,120.5956,345366
"Bagumbayan","Philippines",6.5339,124.5633,67061
"Bagé","Brazil",-31.3308,-54.1069,116794
"Baharampur","India",24.1000,88.2500,195223
"Bahawalnagar","Pakistan",29.9944,73.2536,141935
"Bahawalpur","Pakistan",29.3956,71.6722,762111
"Bahir Dar","Ethiopia",11.5850,37.3900,243300
"Bahraigh","India",27.6204,81.6699,182218
"Bahía Blanca","Argentina",-38.7167,-62.2667,299101
"Baia Mare","Romania",47.6597,23.5819,123738
"Baicheng","China",23.9010,106.6194,3466758
"Baicheng","China",45.6148,122.8320,386861
"Baidoa","Somalia",3.1167,43.6500,129839
"Baidyabāti","India",22.7900,88.3200,121110
"Baigou","China",39.1098,116.0139,124274
"Baiquan","China",47.6018,126.0819,70472
"Bais","Philippines",9.5907,123.1213,76291
"Baisha","China",29.4774,119.2853,446000
"Baishan","China",41.9377,126.4179,330000
"Baiyin","China",36.5448,104.1766,1799000
"Bajos de Haina","Dominican Republic",18.4200,-70.0300,155985
"Bakersfield","United States",35.3529,-119.0359,579295
"Bakhmut","Ukraine",48.6044,38.0067,75798
"Baku","Azerbaijan",40.3667,49.8352,2181800
"Balad","Iraq",34.0147,44.1456,80000
"Balagtas","Philippines",14.8145,120.9085,73929
"Balakovo","Russia",52.0390,47.7839,191260
"Balamban","Philippines",10.4667,123.7833,87177
"Balanga","Philippines",14.6833,120.5333,96061
"Balashikha","Russia",55.8000,37.9500,450771
"Balashov","Russia",51.5500,43.1667,76776
"Balayan","Philippines",13.9333,120.7333,90699
"Balboa Heights","Panama",8.9500,-79.5667,62882
"Baldwin Park","United States",34.0829,-117.9721,75251
"Balikpapan","Indonesia",-1.1489,116.9031,598043
"Balingasag","Philippines",8.7500,124.7833,67059
"Baliuag","Philippines",14.9500,120.9000,149954
"Balkanabat","Turkmenistan",39.5119,54.3650,89785
"Balkh","Afghanistan",36.7581,66.8989,77000
"Ballarat","Australia",-37.5500,143.8500,105471
"Balneário de Camboriú","Brazil",-26.9908,-48.6350,124557
"Balqash","Kazakhstan",46.8500,75.0000,78002
"Balsas","Brazil",-7.5325,-46.0356,68056
"Baltimore","United States",39.3051,-76.6144,2106068
"Balıkesir","Turkey",39.6511,27.8842,331788
"Bam","Iran",29.1083,58.3583,127396
"Bama","Nigeria",11.5204,13.6900,118121
"Bamako","Mali",12.6458,-7.9922,2009109
"Bamban","Philippines",15.6500,120.2500,69466
"Bambang","Philippines",16.3825,121.1100,53433
"Bamberg","Germany",49.8917,10.8917,77592
"Bamei","China",24.2634,105.0809,64188
"Bamenda","Cameroon",5.9333,10.1667,269530
"Bamiantong","China",44.9164,130.5212,330000
"Ban Bang Kaeo","Thailand",13.6371,100.6636,59478
"Ban Bang Pu Mai","Thailand",13.5441,100.6175,120058
"Ban Mangkon","Thailand",13.6138,100.6104,102291
"Ban Rangsit","Thailand",14.0167,100.7500,58838
"Ban Suan","Thailand",13.3616,100.9795,66092
"Ban Talat Rangsit","Thailand",13.9870,100.6095,79319
"Banda Aceh","Indonesia",5.5500,95.3175,235305
"Bandar Lampung","Indonesia",-5.4294,105.2625,1166761
"Bandar Seri Begawan","Brunei",4.9167,114.9167,50000
"Bandar ‘Abbās","Iran",27.2000,56.2500,435751
"Bandar-e Anzalī","Iran",37.4667,49.4667,110643
"Bandar-e Būshehr","Iran",28.9667,50.8333,195222
"Bandar-e Genāveh","Iran",29.5833,50.5167,64110
"Bandar-e Māhshahr","Iran",30.5589,49.1981,162797
"Bandundu","Congo (Kinshasa)",-3.3100,17.3800,118211
"Bandung","Indonesia",-6.9500,107.5667,2394873
"Bandırma","Turkey",40.3542,27.9725,154359
"Bandō","Japan",36.0483,139.8889,51511
"Banfield","Argentina",-34.7500,-58.3833,223898
"Banfora","Burkina Faso",10.6308,-4.7589,60288
"Bang Bua Thong","Thailand",13.9099,100.4263,50141
"Banga","Philippines",6.3000,124.7833,83989
"Bangalore","India",12.9699,77.5980,13707000
"Bangaon","India",23.0700,88.8200,108864
"Bangkok","Thailand",13.7500,100.5167,17066000
"Bangor","United Kingdom",54.6600,-5.6700,61011
"Bangor","United States",44.8322,-68.7906,59772
"Bangui","Central African Republic",4.3732,18.5628,889231
"Banhā","Egypt",30.4628,31.1797,157701
"Bani","Philippines",16.1869,119.8592,50306
"Banja Luka","Bosnia And Herzegovina",44.7667,17.1833,199191
"Banjar","Indonesia",-7.3667,108.5333,182819
"Banjarbaru","Indonesia",-3.4667,114.7500,216600
"Banjarmasin","Indonesia",-3.3333,114.5833,692793
"Bannu","Pakistan",32.9889,70.6056,62191
"Bansalan","Philippines",6.7833,125.2167,60440
"Banská Bystrica","Slovakia",48.7353,19.1453,78327
"Bantayan","Philippines",11.2000,123.7333,79084
"Banyuwangi","Indonesia",-8.1950,114.3696,172424
"Baní","Dominican Republic",18.2900,-70.3300,145595
"Banī Mazār","Egypt",28.5000,30.8000,79553
"Banī Suwayf","Egypt",29.0667,31.0833,193048
"Banī Walīd","Libya",31.7455,13.9835,50824
"Baoding","China",38.8671,115.4845,11860000
"Baojishi","China",34.3609,107.1751,3738700
"Baoshan","China",25.1211,99.1690,2506491
"Baotou","China",40.6562,109.8345,2700000
"Baracoa","Cuba",20.3444,-74.4956,79797
"Barahona","Dominican Republic",18.2079,-71.0996,138159
"Baranavichy","Belarus",53.1167,25.9833,174183
"Baranoa","Colombia",10.7956,-74.9194,50261
"Baras","Philippines",14.5167,121.2667,69300
"Barbacena","Brazil",-21.2258,-43.7739,138204
"Barbosa","Colombia",6.4375,-75.3306,53167
"Barcarena Nova","Brazil",-1.5058,-48.6258,127027
"Barcelona","Spain",41.3825,2.1769,4588000
"Barcelona","Venezuela",10.1333,-64.6833,448016
"Barddhamān","India",23.2500,87.8500,314265
"Bareilly","India",28.3640,79.4150,1000000
"Bari","Italy",41.1253,16.8667,323370
"Barili","Philippines",10.1167,123.5333,73862
"Barinas","Venezuela",8.6150,-70.1985,284289
"Barishal","Bangladesh",22.7000,90.3667,328278
"Barking","United Kingdom",51.5400,0.0800,59068
"Barletta","Italy",41.3167,16.2833,94477
"Barnaul","Russia",53.3567,83.7872,633301
"Barneveld","Netherlands",52.1333,5.5833,57971
"Barnsley","United Kingdom",53.5537,-1.4791,91297
"Barnstable","United States",41.6722,-70.3599,242847
"Barotac Nuevo","Philippines",10.9000,122.7000,54146
"Barquisimeto","Venezuela",10.0678,-69.3467,1059092
"Barra","Brazil",-11.0889,-43.1419,54188
"Barra Mansa","Brazil",-22.5439,-44.1708,179915
"Barra do Garças","Brazil",-15.8900,-52.2569,61135
"Barra do Piraí","Brazil",-22.4700,-43.8258,96865
"Barranca","Peru",-10.7539,-77.7610,144381
"Barrancabermeja","Colombia",7.0675,-73.8472,210729
"Barranquilla","Colombia",10.9639,-74.7964,1274250
"Barrechid","Morocco",33.2700,-7.5872,136634
"Barreiras","Brazil",-12.1528,-44.9900,153918
"Barreirinhas","Brazil",-2.7469,-42.8258,54930
"Barretos","Brazil",-20.5569,-48.5678,119243
"Barri","United Kingdom",51.4050,-3.2700,51502
"Barrie","Canada",44.3711,-79.6769,172657
"Barrow in Furness","United Kingdom",54.1108,-3.2261,56745
"Bartlett","United States",35.2337,-89.8195,59440
"Bartolomé Masó","Cuba",20.1686,-76.9428,56460
"Bartın","Turkey",41.6344,32.3375,155016
"Barueri","Brazil",-23.5111,-46.8764,262275
"Baruta","Venezuela",10.4335,-66.8754,240755
"Basankusu","Congo (Kinshasa)",1.2222,19.8028,52216
"Basel","Switzerland",47.5606,7.5906,177595
"Basey","Philippines",11.2817,125.0683,55480
"Basildon","United Kingdom",51.5761,0.4886,185900
"Basingstoke","United Kingdom",51.2667,-1.0876,113776
"Basuo","China",19.1020,108.6391,167636
"Basīrhat","India",22.6572,88.8942,125254
"Bat Yam","Israel",32.0231,34.7503,128800
"Bata","Equatorial Guinea",1.8650,9.7700,250770
"Batac","Philippines",18.0554,120.5649,55201
"Batangas","Philippines",13.7500,121.0500,329874
"Batarasa","Philippines",8.6667,117.6167,75468
"Batatais","Brazil",-20.8911,-47.5850,60589
"Bataysk","Russia",47.1333,39.7500,126769
"Bath","United Kingdom",51.3800,-2.3600,88859
"Batman","Turkey",37.8833,41.1333,447106
"Batna","Algeria",35.5500,6.1667,290645
"Bato","Philippines",13.3561,123.3639,52137
"Baton Rouge","United States",30.4418,-91.1310,570308
"Battambang","Cambodia",13.1000,103.2000,130000
"Batticaloa","Sri Lanka",7.7170,81.7000,129222
"Battipaglia","Italy",40.6167,14.9833,51005
"Battle Creek","United States",42.2986,-85.2296,76514
"Batu","Indonesia",-7.8672,112.5239,190184
"Batu Pahat","Malaysia",1.8500,102.9300,140000
"Batumi","Georgia",41.6458,41.6417,154600
"Bauan","Philippines",13.7917,121.0085,91297
"Bauang","Philippines",16.5333,120.3333,75032
"Baubau","Indonesia",-5.4667,122.6330,152143
"Bauchi","Nigeria",10.3158,9.8442,693700
"Bauru","Brazil",-22.3147,-49.0606,366992
"Bawku","Ghana",11.0600,-0.2422,73594
"Bay","Philippines",14.1833,121.2833,62143
"Bay City","United States",43.5903,-83.8886,66107
"Bayamo","Cuba",20.3817,-76.6428,235107
"Bayamón","Puerto Rico",18.3793,-66.1635,161034
"Bayan Hot","China",38.8556,105.7001,94445
"Bayawan","Philippines",9.3667,122.8000,117900
"Baybay","Philippines",10.6833,124.8000,109432
"Bayburt","Turkey",40.2546,40.2260,66633
"Bayeux","Brazil",-7.1333,-34.9333,96140
"Bayombong","Philippines",16.4833,121.1500,61512
"Bayonne","France",43.4900,-1.4800,51228
"Bayonne","United States",40.6661,-74.1141,64897
"Bayreuth","Germany",49.9481,11.5783,74657
"Baytown","United States",29.7586,-94.9669,77192
"Bayugan","Philippines",8.7143,125.7481,103202
"Bazhou","China",31.8576,106.7559,3134000
"Bazhou","China",39.1235,116.3860,622975
"Ba‘qūbah","Iraq",33.7447,44.6436,467900
"Beaufort","United States",32.4597,-80.7235,53051
"Beaumont","United States",30.0849,-94.1451,146091
"Beaumont","United States",33.9076,-116.9766,51063
"Beauvais","France",49.4303,2.0952,56020
"Beaverton","United States",45.4779,-122.8168,99037
"Bebedouro","Brazil",-20.9494,-48.4792,77627
"Beckley","United States",37.7878,-81.1841,57942
"Bedford","United Kingdom",52.1350,-0.4700,106940
"Beersheba","Israel",31.2589,34.7978,209000
"Begusarai","India",25.4200,86.1300,252008
"Behbahān","Iran",30.5958,50.2417,122604
"Beian","China",48.2395,126.5037,470000
"Beichengqu","China",40.4348,113.1565,245608
"Beidao","China",34.6000,105.9200,1225000
"Beihai","China",21.4667,109.1000,1539251
"Beijing","China",39.9050,116.3914,19433000
"Beining","China",41.5933,121.7932,514898
"Beipiao","China",41.8020,120.7621,496164
"Beira","Mozambique",-19.8333,34.8500,439264
"Beirut","Lebanon",33.8869,35.5131,361366
"Bejaïa","Algeria",36.7511,5.0642,176139
"Bekasi","Indonesia",-6.2333,107.0000,2381053
"Bekobod","Uzbekistan",40.2258,69.2292,82082
"Belampalli","India",19.0558,79.4931,55841
"Belas","Angola",-8.9983,13.2650,500000
"Belebey","Russia",54.1000,54.1333,60188
"Beledweyne","Somalia",4.7360,45.2040,62945
"Belfast","United Kingdom",54.5964,-5.9300,333871
"Belfort","France",47.6400,6.8500,114445
"Belgaum","India",15.8667,74.5000,488157
"Belgorod","Russia",50.6000,36.6000,391135
"Belgrade","Serbia",44.8167,20.4667,1378682
"Belize City","Belize",17.4986,-88.1886,57169
"Bella Vista","Argentina",-34.5333,-58.6667,72000
"Belladère","Haiti",18.8500,-71.7833,60239
"Bellary","India",15.1500,76.9150,445388
"Belleville","Canada",44.1667,-77.3833,50716
"Bellevue","United States",41.1535,-95.9357,53544
"Bellevue","United States",47.5951,-122.1535,148164
"Bellflower","United States",33.8880,-118.1271,76435
"Bellingham","United States",48.7543,-122.4687,130641
"Bello","Colombia",6.3319,-75.5581,371591
"Belo Horizonte","Brazil",-19.9281,-43.9419,5159000
"Belo Jardim","Brazil",-8.3358,-36.4239,72432
"Beloeil","Canada",45.5667,-73.2000,50796
"Belogorsk","Russia",50.9167,128.4833,66183
"Beloit","United States",42.5230,-89.0184,63762
"Belorechensk","Russia",44.7667,39.8667,52082
"Beloretsk","Russia",53.9667,58.4000,65477
"Belovo","Russia",54.4167,86.3000,72519
"Belém","Brazil",-1.4558,-48.5039,1499641
"Ben Arous","Tunisia",36.7531,10.2189,88322
"Ben Gardane","Tunisia",33.1389,11.2167,79912
"Ben Guerir","Morocco",32.2300,-7.9500,88626
"Benalmádena","Spain",36.6000,-4.5167,69144
"Bend","United States",44.0562,-121.3087,109802
"Bender","Moldova",46.8333,29.4833,91882
"Bendigo","Australia",-36.7500,144.2667,99122
"Benevento","Italy",41.1256,14.7811,61791
"Benevides","Brazil",-1.3608,-48.2450,63768
"Bengbu","China",32.9354,117.3531,3525000
"Benghazi","Libya",32.1167,20.0667,631555
"Bengkulu","Indonesia",-3.7956,102.2592,360495
"Benguela","Angola",-12.5500,13.4167,151226
"Beni","Congo (Kinshasa)",0.5000,29.4667,332903
"Beni Enzar","Morocco",35.2569,-2.9342,56582
"Benidorm","Spain",38.5342,-0.1314,70450
"Benin City","Nigeria",6.3176,5.6145,1190000
"Benoni","South Africa",-26.1883,28.3206,158777
"Bensalem","United States",40.1086,-74.9431,60428
"Benslimane","Morocco",33.6122,-7.1211,57101
"Bento Gonçalves","Brazil",-29.1708,-51.5189,121803
"Benton Harbor","United States",42.1159,-86.4488,59216
"Bentonville","United States",36.3546,-94.2306,54909
"Benxi","China",41.2920,123.7610,1567000
"Bené Beraq","Israel",32.0807,34.8338,193774
"Beppu","Japan",33.2847,131.4911,115992
"Beppuchō","Japan",42.9304,143.1700,173890
"Berazategui","Argentina",-34.7679,-58.2133,180523
"Berbérati","Central African Republic",4.2667,15.7833,76918
"Berdiansk","Ukraine",46.7598,36.7845,114205
"Berdsk","Russia",54.7500,83.1000,103578
"Berdychiv","Ukraine",49.8919,28.6000,76229
"Berezniki","Russia",59.4167,56.7833,145115
"Bergama","Turkey",39.1228,27.1783,103185
"Bergamo","Italy",45.6950,9.6700,120923
"Bergen","Norway",60.3925,5.3233,257087
"Bergen op Zoom","Netherlands",51.5000,4.3000,66811
"Bergheim","Germany",50.9667,6.6500,61612
"Bergisch Gladbach","Germany",50.9917,7.1367,111966
"Berisso","Argentina",-34.8667,-57.8667,101123
"Berkane","Morocco",34.9167,-2.3167,109237
"Berkeley","United States",37.8723,-122.2760,121363
"Berlin","Germany",52.5167,13.3833,3644826
"Bern","Switzerland",46.9480,7.4474,133798
"Bernal","Argentina",-34.7000,-58.2833,109914
"Berriozábal","Mexico",16.7993,-93.2725,51722
"Bertioga","Brazil",-23.8539,-46.1389,56555
"Bertoua","Cameroon",4.5833,13.6833,173000
"Beruniy","Uzbekistan",41.6833,60.7500,50700
"Berwyn","United States",41.8433,-87.7909,54391
"Berëzovskiy","Russia",56.9000,60.8000,57892
"Besançon","France",47.2400,6.0200,115934
"Bet Shemesh","Israel",31.7514,34.9886,114371
"Bethal","South Africa",-26.4500,29.4500,101919
"Bethesda","United States",38.9866,-77.1188,63195
"Bethlehem","United States",40.6266,-75.3679,75815
"Betim","Brazil",-19.9678,-44.1978,444784
"Bezerros","Brazil",-8.2333,-35.7500,60880
"Bezwāda","India",16.5167,80.6167,1048240
"Bełchatów","Poland",51.3667,19.3667,59025
"Bhadreswar","India",22.8200,88.3500,101477
"Bhairāhawā","Nepal",27.5000,83.4500,63483
"Bhakkar","Pakistan",31.6333,71.0667,88472
"Bhaktapur","Nepal",27.6722,85.4278,81748
"Bhalwal","Pakistan",32.2653,72.9028,82556
"Bharatpur","India",27.2172,77.4900,252342
"Bharatpur","Nepal",27.6833,84.4333,143836
"Bhayandar","India",19.3000,72.8500,814655
"Bhilai","India",21.2167,81.4333,1097000
"Bhisho","South Africa",-32.8494,27.4381,160997
"Bhiwandi","India",19.3000,73.0667,1125898
"Bhiwāni","India",28.7833,76.1333,197662
"Bhopāl","India",23.2500,77.4167,1883381
"Bhubaneshwar","India",20.2644,85.8281,837737
"Bhuj","India",23.2504,69.8100,289429
"Bhusāval","India",21.0200,75.8300,183001
"Bhāgalpur","India",25.2500,87.0167,410210
"Bhātpāra","India",22.8667,88.4167,386019
"Bhāvnagar","India",21.7650,72.1369,554978
"Bhīlwāra","India",25.3500,74.6333,389911
"Bhīmavaram","India",16.5333,81.5333,142184
"Bhīmunipatnam","India",17.8864,83.4471,55082
"Biak","Indonesia",-1.1615,136.0485,103610
"Bianyang","China",25.6163,106.6795,56451
"Biała Podlaska","Poland",52.0333,23.1167,57498
"Białystok","Poland",53.1167,23.1667,297554
"Bida","Nigeria",9.0804,6.0100,173849
"Biel/Bienne","Switzerland",47.1372,7.2472,54456
"Bielefeld","Germany",52.0167,8.5333,333786
"Bielsko-Biała","Poland",49.8225,19.0444,172781
"Bijeljina","Bosnia And Herzegovina",44.7500,19.2167,114663
"Bijiao","China",22.9311,113.2018,270310
"Bijie","China",27.3019,105.2863,6537498
"Bijāpur","India",16.8244,75.7154,327427
"Bila Tserkva","Ukraine",49.7956,30.1167,208944
"Bilbao","Spain",43.2569,-2.9236,350184
"Bilbays","Egypt",30.4167,31.5667,141285
"Bilecik","Turkey",40.1431,29.9792,81723
"Bilhorod-Dnistrovskyi","Ukraine",46.1833,30.3333,57210
"Billings","United States",45.7891,-108.5524,120728
"Bilāspur","India",22.1500,82.0167,331030
"Bima","Indonesia",-8.4667,118.7170,136492
"Bimbo","Central African Republic",4.3313,18.5163,124176
"Binalbagan","Philippines",10.2000,122.8667,67270
"Binalonan","Philippines",16.0500,120.6000,54555
"Binangonan","Philippines",14.4514,121.1919,282474
"Binga","Congo (Kinshasa)",2.3834,20.4200,64639
"Binghamton","United States",42.1014,-75.9093,148145
"Bingöl","Turkey",38.8861,40.5017,160165
"Binjai","Indonesia",3.6000,98.4853,269053
"Binmaley","Philippines",16.0323,120.2690,83052
"Bintulu","Malaysia",3.1700,113.0300,151617
"Binxian","China",35.0364,108.0764,323256
"Binzhou","China",37.3806,118.0125,3779200
"Birgañj","Nepal",27.0000,84.8667,135904
"Birigui","Brazil",-21.2889,-50.3400,118352
"Birkenhead","United Kingdom",53.3930,-3.0140,88818
"Birmingham","United Kingdom",52.4800,-1.9025,2897303
"Birmingham","United States",33.5277,-86.7987,739573
"Birnin Kebbi","Nigeria",12.4504,4.1999,108164
"Birnin Konni","Niger",13.7904,5.2599,65252
"Birobidzhan","Russia",48.7833,132.9333,73623
"Birstall","United Kingdom",52.6736,-1.1200,1424216
"Birāṭnagar","Nepal",26.4833,87.2833,242548
"Bisceglie","Italy",41.2409,16.5021,55385
"Bishkek","Kyrgyzstan",42.8667,74.5667,1027200
"Biskra","Algeria",34.8500,5.7333,204661
"Bislig","Philippines",8.1833,126.3500,94535
"Bismarck","United States",46.8144,-100.7694,98345
"Bissau","Guinea-Bissau",11.8592,-15.5956,395954
"Bistriţa","Romania",47.1333,24.4833,75076
"Bitlis","Turkey",38.4000,42.1167,71501
"Bitola","Macedonia",41.0319,21.3347,74550
"Bitonto","Italy",41.1083,16.6917,55127
"Bitung","Indonesia",1.4472,125.1978,218520
"Biu","Nigeria",10.6204,12.1900,95005
"Biysk","Russia",52.5167,85.1667,203108
"Bizerte","Tunisia",37.2744,9.8739,142966
"Biên Hòa","Vietnam",10.9277,106.8681,1104000
"Biñan","Philippines",14.3333,121.0833,333028
"Blackburn","United Kingdom",53.7480,-2.4820,117963
"Blackpool","United Kingdom",53.8142,-3.0503,139720
"Blacksburg","United States",37.2300,-80.4279,91888
"Blagoevgrad","Bulgaria",42.0119,23.0897,82606
"Blagoveshchensk","Russia",50.2578,127.5364,224419
"Blaine","United States",45.1696,-93.2077,65607
"Blainville","Canada",45.6700,-73.8800,56363
"Blantyre","Malawi",-15.7861,35.0058,1895973
"Blida","Algeria",36.4722,2.8333,331779
"Blitar","Indonesia",-8.1000,112.1500,132018
"Bloemfontein","South Africa",-29.1000,26.2167,256185
"Bloomington","United States",39.1637,-86.5257,115884
"Bloomington","United States",40.4757,-88.9703,133846
"Bloomington","United States",44.8306,-93.3151,84943
"Blue Springs","United States",39.0124,-94.2721,55829
"Blumenau","Brazil",-26.9189,-49.0658,309011
"Bo","Sierra Leone",7.9564,-11.7400,174354
"Boa Viagem","Brazil",-5.1278,-39.7319,52498
"Boa Vista","Brazil",2.8200,-60.6719,326419
"Boac","Philippines",13.4500,121.8333,54730
"Boaco","Nicaragua",12.4722,-85.6586,317000
"Bobbili","India",18.5667,83.4167,56819
"Bobigny","France",48.9106,2.4397,53640
"Bobo-Dioulasso","Burkina Faso",11.1833,-4.2833,360106
"Boca Chica","Dominican Republic",18.4539,-69.6064,142019
"Boca Raton","United States",26.3752,-80.1080,99805
"Boca del Rio","Mexico",19.1056,-96.1078,138058
"Bocaiúva","Brazil",-17.1078,-43.8150,50256
"Bocaue","Philippines",14.8000,120.9333,119675
"Bocholt","Germany",51.8333,6.6167,71099
"Bochum","Germany",51.4833,7.2167,364628
"Bodhan","India",18.6700,77.9000,77573
"Bodø","Norway",67.2833,14.3833,51558
"Bogo","Cameroon",10.7361,14.6108,95230
"Bogo","Philippines",11.0167,124.0000,78120
"Bogor","Indonesia",-6.6000,106.8000,1030720
"Bogotá","Colombia",4.6126,-74.0705,9464000
"Boise","United States",43.6007,-116.2312,389280
"Boituva","Brazil",-23.2833,-47.6722,55725
"Bojnūrd","Iran",37.4667,57.3333,199791
"Bokhtar","Tajikistan",37.8364,68.7803,75450
"Boké","Guinea",10.9400,-14.3000,116270
"Bole","China",44.8980,82.0726,235585
"Bolgatanga","Ghana",10.7856,-0.8514,66685
"Boli","China",45.7564,130.5759,95260
"Bolinao","Philippines",16.3333,119.8833,82084
"Bolingbrook","United States",41.6903,-88.1019,74545
"Bologna","Italy",44.4939,11.3428,389261
"Bolton","United Kingdom",53.5780,-2.4290,128139
"Bolu","Turkey",40.7333,31.6000,205525
"Bolzano","Italy",46.5000,11.3500,107317
"Bom Jesus da Lapa","Brazil",-13.2550,-43.4178,69526
"Boma","Congo (Kinshasa)",-5.8500,13.0500,178638
"Bombo","Uganda",0.5833,32.5333,75000
"Bonao","Dominican Republic",18.9333,-70.4000,158034
"Bondoukou","Côte D’Ivoire",8.0400,-2.8000,58297
"Bondy","France",48.9022,2.4828,53353
"Bongabon","Philippines",15.6321,121.1448,64173
"Bongabong","Philippines",12.7167,121.3667,72073
"Bongao","Philippines",5.0292,119.7731,100527
"Bonita Springs","United States",26.3559,-81.7861,421291
"Bonn","Germany",50.7339,7.0997,327258
"Bontang","Indonesia",0.1333,117.5000,161413
"Bonāb","Iran",37.3403,46.0561,75332
"Bootle","United Kingdom",53.4457,-2.9891,51394
"Bor","Russia",56.3603,44.0592,78063
"Bor","South Sudan",6.2167,31.5500,315351
"Bor","Turkey",37.8833,34.5667,60335
"Bordeaux","France",44.8400,-0.5800,257804
"Bordj Bou Arreridj","Algeria",36.0667,4.7667,168346
"Bordj Menaïel","Algeria",36.7417,3.7231,64820
"Borisoglebsk","Russia",51.3667,42.0833,62669
"Borongan","Philippines",11.6000,125.4333,69297
"Borovichi","Russia",58.4000,33.9167,50144
"Boryeong","Korea, South",36.3333,126.6167,101852
"Boryspil","Ukraine",50.3500,30.9500,62281
"Borås","Sweden",57.7304,12.9200,65008
"Borāzjān","Iran",29.2667,51.2158,110567
"Borūjerd","Iran",33.8972,48.7514,234997
"Bossier City","United States",32.5227,-93.6666,68159
"Boston","United States",42.3188,-71.0846,4688346
"Botolan","Philippines",15.2896,120.0245,57707
"Botou","China",38.0740,116.5700,584308
"Botoşani","Romania",47.7486,26.6694,106847
"Bottrop","Germany",51.5232,6.9253,117383
"Botucatu","Brazil",-22.8858,-48.4450,139483
"Bou Saâda","Algeria",35.2083,4.1739,111787
"Bouaflé","Côte D’Ivoire",6.9903,-5.7442,71792
"Bouaké","Côte D’Ivoire",7.6833,-5.0331,659233
"Boufarik","Algeria",36.5750,2.9097,57162
"Bouira","Algeria",36.3783,3.8925,68545
"Boulder","United States",40.0249,-105.2523,124345
"Boulogne-Billancourt","France",48.8352,2.2409,120071
"Boulogne-sur-Mer","France",50.7264,1.6147,133062
"Bourges","France",47.0844,2.3964,64551
"Bournemouth","United Kingdom",50.7200,-1.8800,183491
"Bouskoura","Morocco",33.4489,-7.6486,103026
"Bowie","United States",38.9569,-76.7409,58643
"Bowling Green","United States",36.9719,-86.4373,95135
"Boynton Beach","United States",26.5281,-80.0811,78679
"Bozeman","United States",45.6832,-111.0552,57695
"Bozhou","China",33.8626,115.7742,5100000
"Bracknell","United Kingdom",51.4160,-0.7490,84469
"Bradenton","United States",27.4900,-82.5739,59439
"Braga","Portugal",41.5333,-8.4167,181494
"Bragança","Brazil",-1.0536,-46.7656,57163
"Bragança Paulista","Brazil",-22.9189,-46.5425,160665
"Brahmapur","India",19.3200,84.8000,324726
"Braintree","United Kingdom",51.8780,0.5500,53477
"Brakpan","South Africa",-26.2353,28.3700,73080
"Brampton","Canada",43.6833,-79.7667,593638
"Brandenburg","Germany",52.4117,12.5561,72124
"Brandon","United States",27.9367,-82.3000,115911
"Brantford","Canada",43.1667,-80.2500,97496
"Brasília","Brazil",-15.7939,-47.8828,3015268
"Bratislava","Slovakia",48.1447,17.1128,429564
"Bratsk","Russia",56.1667,101.6167,231602
"Braunschweig","Germany",52.2692,10.5211,248292
"Brazzaville","Congo (Brazzaville)",-4.2667,15.2833,1827000
"Braşov","Romania",45.6500,25.6000,290743
"Breda","Netherlands",51.5875,4.7750,183873
"Bremen","Germany",53.1153,8.7975,724909
"Bremerhaven","Germany",53.5500,8.5833,113634
"Bremerton","United States",47.5436,-122.7122,218400
"Brentwood","United Kingdom",51.6204,0.3050,54885
"Brentwood","United States",37.9355,-121.7191,64474
"Brentwood","United States",40.7839,-73.2522,63399
"Brescia","Italy",45.5389,10.2203,196745
"Brest","Belarus",52.0847,23.6569,340318
"Brest","France",48.3900,-4.4900,300300
"Breves","Brazil",-1.6819,-50.4800,103497
"Brick","United States",40.0600,-74.1099,75342
"Bridgeport","United States",41.1918,-73.1953,924449
"Bridgetown","Barbados",13.0975,-59.6167,110000
"Brighton","United Kingdom",50.8429,-0.1313,134293
"Brikama","Gambia, The",13.2804,-16.6599,195136
"Brindisi","Italy",40.6383,17.9458,87141
"Brisbane","Australia",-27.4678,153.0281,2514184
"Bristol","United Kingdom",51.4500,-2.5833,724000
"Bristol","United States",36.5572,-82.2154,70243
"Bristol","United States",40.1216,-74.8667,53649
"Bristol","United States",41.6812,-72.9407,59947
"Brits","South Africa",-25.6167,27.7667,122497
"Brixton","United Kingdom",51.4630,-0.1060,78536
"Brno","Czechia",49.1953,16.6083,382405
"Brockton","United States",42.0821,-71.0242,95708
"Broken Arrow","United States",36.0365,-95.7809,110198
"Bromley","United Kingdom",51.4070,0.0210,87889
"Bronx","United States",40.8501,-73.8662,1418207
"Brookes Point","Philippines",8.7833,117.8333,66374
"Brookhaven","United States",33.8744,-84.3314,55554
"Brookhaven","United States",40.8321,-72.9518,483546
"Brookline","United States",42.3243,-71.1408,59180
"Brooklyn","United States",40.6501,-73.9496,2559903
"Brooklyn Park","United States",45.1112,-93.3505,80389
"Broomfield","United States",39.9541,-105.0527,70465
"Brossard","Canada",45.4667,-73.4500,85721
"Brovary","Ukraine",50.5114,30.7903,102856
"Brownsville","United States",25.9980,-97.4565,227239
"Bruges","Belgium",51.2089,3.2242,118053
"Brunswick","United States",31.1450,-81.4740,53914
"Brusque","Brazil",-27.1300,-48.9300,88284
"Brussels","Belgium",50.8333,4.3333,1743000
"Bryan","United States",30.6657,-96.3668,86276
"Bryansk","Russia",53.2500,34.3667,406553
"Brāhmanbāria","Bangladesh",23.9667,91.1000,268279
"Brăila","Romania",45.2692,27.9575,180302
"Bucak","Turkey",37.4592,30.5950,64943
"Bucaramanga","Colombia",7.1186,-73.1161,581130
"Bucharest","Romania",44.4000,26.0833,1883425
"Bucheon","Korea, South",37.4989,126.7831,867678
"Buckeye","United States",33.4314,-112.6429,79620
"Budapest","Hungary",47.4983,19.0408,1752286
"Budaun","India",28.0300,79.0900,161555
"Budënnovsk","Russia",44.7833,44.1500,62495
"Buea","Cameroon",4.1667,9.2333,131325
"Buena Park","United States",33.8572,-118.0046,81788
"Buenaventura","Colombia",3.8772,-77.0267,423927
"Buenavista","Mexico",19.6083,-99.1694,206081
"Buenavista","Philippines",10.7000,122.6333,50437
"Buenavista","Philippines",8.9744,125.4090,61614
"Buenos Aires","Argentina",-34.5997,-58.3819,16157000
"Buffalo","United States",42.9016,-78.8487,914341
"Bugallon","Philippines",15.9167,120.1833,67348
"Bugulma","Russia",54.5333,52.7833,86085
"Buhi","Philippines",13.4333,123.5167,77143
"Buin","Chile",-33.7333,-70.7500,96614
"Bujumbura","Burundi",-3.3825,29.3611,658859
"Bukavu","Congo (Kinshasa)",-2.5000,28.8667,436779
"Bukhara","Uzbekistan",39.7747,64.4286,272500
"Bukit Mertajam","Malaysia",5.3631,100.4667,210000
"Bukittinggi","Indonesia",-0.3097,100.3753,113326
"Bukoba","Tanzania",-1.3333,31.8167,100504
"Bula","Philippines",13.4667,123.2833,69430
"Bulacan","Philippines",14.7928,120.8789,76565
"Bulan","Philippines",12.6714,123.8750,100076
"Bulandshahr","India",28.4104,77.8484,198612
"Bulawayo","Zimbabwe",-20.1667,28.5667,653337
"Bullhead City","United States",35.1205,-114.5460,50309
"Buluan","Philippines",6.7154,124.7854,50008
"Bumba","Congo (Kinshasa)",2.1900,22.4600,103328
"Bunbury","Australia",-33.3333,115.6333,74363
"Bundaberg","Australia",-24.8500,152.3500,70921
"Bungoma","Kenya",0.5666,34.5666,55857
"Bunia","Congo (Kinshasa)",1.5604,30.2400,96764
"Burauen","Philippines",10.9833,124.9000,52732
"Buraydah","Saudi Arabia",26.3333,43.9667,614093
"Burbank","United States",34.1879,-118.3235,102511
"Burdur","Turkey",37.7167,30.2833,113077
"Burgas","Bulgaria",42.5000,27.4667,226868
"Burgos","Spain",42.3500,-3.6822,170183
"Burhānpur","India",21.3004,76.1300,197233
"Burien","United States",47.4762,-122.3394,51500
"Burlington","Canada",43.3167,-79.8000,183314
"Burlington","United States",36.0758,-79.4686,131043
"Burlington","United States",44.4877,-73.2314,109763
"Burnaby","Canada",49.2667,-122.9667,232755
"Burnley","United Kingdom",53.7890,-2.2480,73021
"Burnsville","United States",44.7648,-93.2795,61339
"Bursa","Turkey",40.1833,29.0667,2901396
"Burton upon Trent","United Kingdom",52.8019,-1.6367,72299
"Burutu","Nigeria",5.3533,5.5083,209666
"Bury","United Kingdom",53.5930,-2.2980,78723
"Burzaco","Argentina",-34.8167,-58.3667,98859
"Busan","Korea, South",35.1000,129.0403,3453198
"Busto Arsizio","Italy",45.6120,8.8518,83405
"Butare","Rwanda",-2.6000,29.7500,50220
"Butembo","Congo (Kinshasa)",0.1251,29.2990,217625
"Butterworth","Malaysia",5.3942,100.3664,821652
"Butuan","Philippines",8.9534,125.5288,337063
"Butwāl","Nepal",27.7000,83.4500,118462
"Buynaksk","Russia",42.8167,47.1167,65080
"Buzuluk","Russia",52.7667,52.2667,86316
"Buzău","Romania",45.1517,26.8167,115494
"Buíque","Brazil",-8.6233,-37.1564,58919
"Buôn Ma Thuột","Vietnam",12.6667,108.0500,340000
"Bydgoszcz","Poland",53.1167,18.0000,346739
"Bytom","Poland",50.3470,18.9230,171515
"Bârlad","Romania",46.2167,27.6667,55837
"Béchar","Algeria",31.6333,-2.2000,165627
"Béja","Tunisia",36.7256,9.1817,109299
"Békéscsaba","Hungary",46.6833,21.0833,58996
"Béni Mellal","Morocco",32.3394,-6.3608,192676
"Béziers","France",43.3476,3.2190,77177
"Böblingen","Germany",48.6833,9.0000,50155
"Bābol","Iran",36.5500,52.6833,250217
"Bāli","India",22.6500,88.3400,293373
"Bālurghāt","India",25.2167,88.7667,153279
"Bāmyān","Afghanistan",34.8167,67.8167,61863
"Bāneh","Iran",35.9975,45.8853,110218
"Bānkura","India",23.2500,87.0667,137386
"Bānsbāria","India",22.9700,88.4000,103920
"Bāpatla","India",15.8889,80.4700,70777
"Bāramūla","India",34.2000,74.3400,167986
"Bārāsat","India",22.2333,88.4500,278435
"Bălţi","Moldova",47.7617,27.9289,144800
"Będzin","Poland",50.3250,19.1333,56354
"Bīdar","India",17.9229,77.5175,300136
"Bījār","Iran",35.8741,47.5937,53871
"Bīkaner","India",28.0181,73.3169,529007
"Bīrjand","Iran",32.8664,59.2211,178020
"Būkān","Iran",36.5208,46.2117,248900
"Būmahen","Iran",35.7297,51.8619,79034
"Būr Fu’ād","Egypt",31.2314,32.3253,70417
"Bạc Liêu","Vietnam",9.2833,105.7167,225000
"Bắc Giang","Vietnam",21.2731,106.1947,53728
"Bắc Ninh","Vietnam",21.1861,106.0763,520000
"Bến Tre","Vietnam",10.2333,106.3833,59442
"Cabadbaran","Philippines",9.1228,125.5346,73639
"Cabagan","Philippines",17.4333,121.7667,50174
"Cabanatuan City","Philippines",15.4833,120.9667,302231
"Cabatuan","Philippines",10.8833,122.4833,58442
"Cabedelo","Brazil",-6.9808,-34.8339,65634
"Cabiao","Philippines",15.2500,120.8500,79007
"Cabimas","Venezuela",10.4000,-71.4333,351735
"Cabinda","Angola",-5.5667,12.2000,550000
"Cabo Frio","Brazil",-22.8789,-42.0189,230378
"Cabo San Lucas","Mexico",22.8897,-109.9156,81111
"Cabudare","Venezuela",10.0331,-69.2633,70578
"Cabuyao","Philippines",14.2750,121.1250,308745
"Cachoeira do Sul","Brazil",-30.0394,-52.8953,85712
"Cachoeiras de Macacu","Brazil",-22.4628,-42.6528,59303
"Cachoeirinha","Brazil",-29.9508,-51.0939,118278
"Cachoeiro de Itapemirim","Brazil",-20.8489,-41.1128,210589
"Cacoal","Brazil",-11.4386,-61.4472,87877
"Cadereyta Jiménez","Mexico",25.6000,-100.0000,86445
"Cadiz","Philippines",10.9500,123.3000,154723
"Caen","France",49.1800,-0.3700,105354
"Caerdydd","United Kingdom",51.4833,-3.1833,479000
"Caetité","Brazil",-14.0689,-42.4750,52531
"Cagayan de Oro","Philippines",8.4833,124.6500,675950
"Cagliari","Italy",39.2167,9.1167,154106
"Cagnes-sur-Mer","France",43.6644,7.1489,50928
"Cagua","Venezuela",10.1875,-67.4611,122571
"Caguas","Puerto Rico",18.2319,-66.0388,73322
"Caicó","Brazil",-6.4578,-37.0978,67259
"Cainta","Philippines",14.5667,121.1167,322128
"Cairns","Australia",-16.9303,145.7703,152729
"Cairo","Egypt",30.0561,31.2394,19372000
"Cajamarca","Peru",-7.1644,-78.5106,201329
"Cajazeiras","Brazil",-6.8900,-38.5619,61431
"Cajicá","Colombia",4.9167,-74.0250,61549
"Calabanga","Philippines",13.7167,123.2333,83033
"Calabar","Nigeria",4.9500,8.3250,461796
"Calabayan","Philippines",16.7667,121.7833,129523
"Calabozo","Venezuela",8.9219,-67.4283,131989
"Calaca","Philippines",13.9667,120.8000,81859
"Calais","France",50.9481,1.8564,73911
"Calama","Chile",-22.4624,-68.9272,157575
"Calapan","Philippines",13.3667,121.2000,133893
"Calasiao","Philippines",16.0167,120.3667,95154
"Calatagan","Philippines",13.8322,120.6322,56449
"Calatrava","Philippines",10.6000,123.4833,80624
"Calauag","Philippines",13.9575,122.2875,73139
"Calauan","Philippines",14.1500,121.3167,80453
"Calbayog City","Philippines",12.0667,124.6000,183851
"Caldas","Colombia",6.0886,-75.6361,81381
"Caldas Novas","Brazil",-17.7439,-48.6258,93196
"Caldas da Rainha","Portugal",39.4069,-9.1363,51729
"Caldwell","United States",43.6453,-116.6591,58481
"Caledon","Canada",43.8667,-79.8667,66502
"Caleta Olivia","Argentina",-46.4333,-67.5333,51733
"Calgary","Canada",51.0500,-114.0667,1239220
"Cali","Colombia",3.4400,-76.5197,2471474
"Calicut","India",11.2500,75.7667,431560
"Calinog","Philippines",11.1333,122.5000,60413
"Callao","Peru",-12.0611,-77.1333,1129854
"Caloocan City","Philippines",14.6500,120.9667,1583978
"Caltanissetta","Italy",37.4915,14.0624,62317
"Calumpit","Philippines",14.9167,120.7667,108757
"Cam Ranh","Vietnam",11.9020,109.2207,146771
"Cam Ranh","Vietnam",11.9136,109.1369,125311
"Camagüey","Cuba",21.3786,-77.9186,321992
"Camalig","Philippines",13.1500,123.6000,66904
"Camaquã","Brazil",-30.8528,-51.8153,62764
"Camarajibe","Brazil",-8.0219,-34.9808,155054
"Camarillo","United States",34.2230,-119.0322,76931
"Camaçari","Brazil",-12.6978,-38.3239,286919
"Cambanugoy","Philippines",7.5386,125.7508,59322
"Camboriú","Brazil",-27.0250,-48.6539,85105
"Cambridge","Canada",43.3972,-80.3114,129920
"Cambridge","United States",42.3759,-71.1185,118927
"Cambé","Brazil",-23.2758,-51.2778,107341
"Camden","United States",39.9362,-75.1073,73562
"Cametá","Brazil",-2.2439,-49.4958,139364
"Camiling","Philippines",15.7000,120.4167,83248
"Campana","Argentina",-34.1667,-58.9167,86860
"Campeche","Mexico",19.8500,-90.5306,220389
"Campina Grande","Brazil",-7.2306,-35.8811,405072
"Campinas","Brazil",-22.9009,-47.0573,1164098
"Campo Alegre","Brazil",-9.7819,-36.3508,57548
"Campo Belo","Brazil",-20.8969,-45.2769,54186
"Campo Bom","Brazil",-29.6789,-51.0528,69458
"Campo Formoso","Brazil",-10.5089,-40.3208,72271
"Campo Grande","Brazil",-20.4686,-54.6222,906092
"Campo Largo","Brazil",-25.4589,-49.5278,133865
"Campo Limpo","Brazil",-23.2064,-46.7844,80847
"Campo Mourão","Brazil",-24.0458,-52.3828,95488
"Campos","Brazil",-21.7523,-41.3304,387417
"Campos do Jordão","Brazil",-22.7394,-45.5914,50852
"Canberra","Australia",-35.2931,149.1269,426704
"Cancún","Mexico",21.1606,-86.8475,743626
"Candaba","Philippines",15.0933,120.8283,111586
"Candeias","Brazil",-12.6678,-38.5508,88806
"Candelaria","Philippines",13.9311,121.4233,117434
"Candon","Philippines",17.2000,120.4500,60623
"Canela","Brazil",-29.3562,-50.8136,60806
"Canguçu","Brazil",-31.3950,-52.6758,53259
"Cangzhou","China",38.3037,116.8452,7544300
"Canindé","Brazil",-4.3589,-39.3119,77244
"Canlaon","Philippines",10.3833,123.2000,54509
"Cannes","France",43.5513,7.0128,73868
"Canoas","Brazil",-29.9200,-51.1800,348208
"Canoinhas","Brazil",-26.1769,-50.3900,54480
"Cantaura","Venezuela",9.3005,-64.3564,89552
"Canterbury","United Kingdom",51.2800,1.0800,55240
"Canton","United States",40.8075,-81.3677,269418
"Cao Lãnh","Vietnam",10.4603,105.6331,149837
"Cap-Haïtien","Haiti",19.7500,-72.2000,190289
"Capas","Philippines",15.3312,120.5898,140202
"Cape Breton","Canada",46.1389,-60.1931,94285
"Cape Coast","Ghana",5.1000,-1.2500,143015
"Cape Coral","United States",26.6446,-81.9956,668382
"Cape Girardeau","United States",37.3108,-89.5597,56551
"Cape Town","South Africa",-33.9250,18.4250,433688
"Capelle aan den IJssel","Netherlands",51.9357,4.5782,66514
"Capenda Camulemba","Angola",-9.4233,18.4328,80000
"Capivari","Brazil",-22.9950,-47.5078,53152
"Caracas","Venezuela",10.5000,-66.9333,1943901
"Caraguatatuba","Brazil",-23.6200,-45.4128,113317
"Carapicuíba","Brazil",-23.5228,-46.8358,392294
"Caratinga","Brazil",-19.7900,-42.1389,92603
"Carbondale","United States",37.7221,-89.2238,65671
"Carcar","Philippines",10.1167,123.6333,119664
"Carepa","Colombia",7.7581,-76.6553,61641
"Cariacica","Brazil",-20.2639,-40.4200,383917
"Carigara","Philippines",11.3000,124.6833,51345
"Caripito","Venezuela",10.1110,-63.1048,64955
"Carles","Philippines",11.5667,123.1333,68160
"Carlisle","United Kingdom",54.8910,-2.9440,75306
"Carlos Manuel de Céspedes","Cuba",21.5767,-78.2775,224488
"Carlsbad","United States",33.1247,-117.2837,115382
"Carmel","United States",39.9650,-86.1460,101068
"Carmen","Philippines",7.2000,124.7833,95921
"Carmen","Philippines",7.3606,125.7064,74679
"Carmichael","United States",38.6337,-121.3230,64454
"Carmona","Philippines",14.3167,121.0500,97557
"Carolina","Puerto Rico",18.4054,-65.9792,136771
"Carora","Venezuela",10.1692,-70.0783,112600
"Carpi","Italy",44.7833,10.8850,71148
"Carpina","Brazil",-7.8508,-35.2547,165579
"Carrara","Italy",44.0833,10.1000,62537
"Carrefour","Haiti",18.5333,-72.4000,511345
"Carrières-sur-Seine","France",48.9108,2.2889,85191
"Carrollton","United States",32.9890,-96.8999,139248
"Carson","United States",33.8374,-118.2559,91394
"Carson City","United States",39.1512,-119.7474,58756
"Cartagena","Colombia",10.4236,-75.5253,1036412
"Cartagena","Spain",37.6000,-0.9819,216108
"Cartago","Colombia",4.7500,-75.9100,134827
"Cartago","Costa Rica",9.8667,-83.9167,221733
"Cartersville","United States",34.1639,-84.8007,57873
"Caruaru","Brazil",-8.2828,-35.9758,347088
"Cary","United States",35.7820,-78.8191,170282
"Caràzinho","Brazil",-28.2839,-52.7864,59417
"Carúpano","Venezuela",10.6722,-63.2403,173877
"Casa Grande","United States",32.9068,-111.7624,61966
"Casa Nova","Brazil",-9.1619,-40.9708,72172
"Casablanca","Morocco",33.5992,-7.6200,4370000
"Casas Adobes","United States",32.3423,-111.0114,70166
"Cascavel","Brazil",-24.9558,-53.4553,257172
"Caseros","Argentina",-34.6167,-58.5333,95785
"Caserta","Italy",41.0667,14.3333,75561
"Casoria","Italy",40.9000,14.3000,77087
"Casper","United States",42.8420,-106.3207,67598
"Cassongue","Angola",-11.8181,14.9689,117000
"Castanhal","Brazil",-1.2969,-47.9219,192571
"Castelar","Argentina",-34.6500,-58.6500,107786
"Castellammare di Stabia","Italy",40.7000,14.4833,65922
"Castelldefels","Spain",41.2800,1.9767,67460
"Castellón de la Plana","Spain",39.9831,-0.0331,174264
"Castelo Branco","Portugal",39.8230,-7.4931,56109
"Castilla","Philippines",12.9486,123.8822,57827
"Castillejos","Philippines",14.9333,120.2000,64841
"Castle Rock","United States",39.3763,-104.8535,68484
"Castries","Saint Lucia",14.0167,-60.9833,70000
"Castro Valley","United States",37.7091,-122.0631,63013
"Castrop-Rauxel","Germany",51.5500,7.3167,73425
"Catabola","Angola",-12.1167,17.3000,126631
"Cataingan","Philippines",12.0000,123.9833,50327
"Catalina Foothills","United States",32.3041,-110.8835,50454
"Catalão","Brazil",-18.1700,-47.9419,110983
"Catamarca","Argentina",-28.4686,-65.7792,159139
"Catanauan","Philippines",13.5917,122.3250,71073
"Catanduva","Brazil",-21.1378,-48.9728,119480
"Catania","Italy",37.5027,15.0873,311584
"Catanzaro","Italy",38.9100,16.5875,89718
"Catape","Angola",-13.7667,15.0833,167820
"Catarman","Philippines",12.4500,124.6500,94037
"Catbalogan","Philippines",11.7833,124.8833,103879
"Cathedral City","United States",33.8363,-116.4642,55007
"Catia La Mar","Venezuela",10.6000,-67.0333,661897
"Catumbela","Angola",-12.4167,13.5333,175805
"Caucaia","Brazil",-3.7328,-38.6558,325441
"Cava de’ Tirreni","Italy",40.7008,14.7056,53130
"Cavite City","Philippines",14.4833,120.9000,102806
"Cawayan","Philippines",12.0333,123.6833,67033
"Cawayan","Philippines",9.9667,122.6167,102165
"Cawnpore","India",26.4725,80.3311,2701324
"Caxias","Brazil",-4.8589,-43.3558,165525
"Caxias do Sul","Brazil",-29.1678,-51.1789,517451
"Cayenne","French Guiana",4.9330,-52.3300,61550
"Caála","Angola",-12.8500,15.5500,279792
"Caçador","Brazil",-26.7753,-51.0150,63726
"Caçapava","Brazil",-23.1008,-45.7069,91162
"Ceará-Mirim","Brazil",-5.6339,-35.4258,73886
"Cebu City","Philippines",10.3000,123.9000,922611
"Cedar Park","United States",30.5106,-97.8196,79462
"Cedar Rapids","United States",41.9665,-91.6782,188038
"Celaya","Mexico",20.5222,-100.8122,468469
"Celle","Germany",52.6256,10.0825,69602
"Cencheng","China",22.9297,111.0186,772113
"Centennial","United States",39.5926,-104.8674,110937
"Centreville","United States",38.8391,-77.4388,74125
"Centro Habana","Cuba",23.1333,-82.3833,140234
"Centurion","South Africa",-25.8603,28.1894,236580
"Cereté","Colombia",8.8867,-75.7911,83917
"Cergy","France",49.0361,2.0631,65177
"Cerignola","Italy",41.2667,15.9000,58540
"Cerro de Pasco","Peru",-10.6864,-76.2625,58899
"Cesena","Italy",44.1333,12.2333,96760
"Ceylanpınar","Turkey",36.9194,39.9050,87684
"Chaedŏk","Korea, North",40.6723,129.2027,187270
"Chaguanas","Trinidad And Tobago",10.5144,-61.4075,83489
"Chaigoubu","China",40.6687,114.4157,73028
"Chajarí","Argentina",-30.7667,-57.9833,60000
"Chakradharpur","India",22.7000,85.6300,197953
"Chalchuapa","El Salvador",13.9833,-89.6833,90000
"Chalco","Mexico",19.2647,-98.8975,310130
"Chalkída","Greece",38.4625,23.5950,59125
"Chalándri","Greece",38.0167,23.8000,74192
"Chaman","Pakistan",30.9210,66.4597,107660
"Chambersburg","United States",39.9315,-77.6556,53083
"Chambéry","France",45.5700,5.9118,58919
"Champaign","United States",40.1144,-88.2735,159443
"Champdani","India",22.8000,88.3700,111251
"Champigny-sur-Marne","France",48.8172,2.5156,77630
"Chandannagar","India",22.8667,88.3833,166867
"Chandler","United States",33.2826,-111.8516,261165
"Chandīgarh","India",30.7353,76.7911,1026459
"Changchun","China",43.9000,125.2000,7674439
"Changde","China",29.0397,111.6839,6011000
"Changhua","Taiwan",24.0667,120.5333,750000
"Changling","China",44.2700,123.9900,55841
"Changping","China",40.2248,116.1944,614821
"Changsha","China",22.3762,112.6877,717700
"Changsha","China",28.1987,112.9709,8394500
"Changshu","China",31.6500,120.7333,1510100
"Changting","China",25.8670,116.3167,87458
"Changwon","Korea, South",35.2281,128.6811,1046054
"Changzhi","China",36.1953,113.0970,3230000
"Changzhou","China",31.8122,119.9692,4592431
"Chang’an","China",29.4761,113.4480,537500
"Chaniá","Greece",35.5173,24.0195,78728
"Chaohucun","China",31.6783,117.7353,782000
"Chaoshan","China",23.0701,113.8693,156522
"Chaoyang","China",41.5757,120.4486,3370000
"Chaozhou","China",23.6700,116.6300,2656600
"Chapadinha","Brazil",-3.7419,-43.3600,80195
"Chapayevsk","Russia",52.9833,49.7167,72778
"Chapecó","Brazil",-27.0958,-52.6178,224013
"Chapel Hill","United States",35.9270,-79.0391,64051
"Charallave","Venezuela",10.2431,-66.8622,117707
"Charleroi","Belgium",50.4167,4.4442,201816
"Charleston","United States",32.8153,-79.9628,628377
"Charleston","United States",38.3484,-81.6323,138706
"Charlotte","United States",35.2080,-80.8304,1512923
"Charlottesville","United States",38.0375,-78.4855,100416
"Charsadda","Pakistan",34.1453,71.7308,105414
"Chatham","Canada",42.4229,-82.1324,101647
"Chatham","United Kingdom",51.3700,0.5200,76792
"Chattanooga","United States",35.0657,-85.2488,415501
"Chattogram","Bangladesh",22.3350,91.8325,2581643
"Chauk","Myanmar",20.9085,94.8230,90870
"Chaykovskiy","Russia",56.7667,54.1167,83077
"Cheboksary","Russia",56.1333,47.2500,489498
"Chech’ŏn","Korea, South",37.1361,128.2119,136350
"Cheektowaga","United States",42.9082,-78.7466,86477
"Chekhov","Russia",55.1481,37.4769,70548
"Chelles","France",48.8833,2.6000,54917
"Chelmsford","United Kingdom",51.7361,0.4798,111511
"Cheltenham","United Kingdom",51.9000,-2.0667,116447
"Chelyabinsk","Russia",55.1500,61.4000,1202371
"Chemnitz","Germany",50.8333,12.9167,245403
"Chenab Nagar","Pakistan",31.7500,72.9167,53965
"Chengbin","China",19.9991,110.3332,77904
"Chengde","China",40.9739,117.9322,3610000
"Chengdu","China",30.6600,104.0633,11309000
"Chengguan","China",35.4599,113.7975,740435
"Chengjiao","China",35.4043,114.0593,495744
"Chengjiao Chengguanzhen","China",34.4362,104.0306,67826
"Chengtangcun","China",35.0833,117.1500,1603659
"Chengxiang","China",31.4515,121.1043,709500
"Chennai","India",13.0825,80.2750,11324000
"Chenzhou","China",25.7989,113.0267,4754600
"Cheongju","Korea, South",36.6372,127.4897,833276
"Cherbourg","France",49.6333,-1.6000,60991
"Cheremkhovo","Russia",53.1500,103.0667,50819
"Cherepovets","Russia",59.1333,37.9167,318856
"Cherkasy","Ukraine",49.4444,32.0597,276360
"Cherkessk","Russia",44.2222,42.0575,122395
"Chernihiv","Ukraine",51.4939,31.2947,294522
"Chernivtsi","Ukraine",48.2908,25.9344,266550
"Chernogorsk","Russia",53.8167,91.2833,75419
"Cherry Hill","United States",39.9034,-74.9947,70965
"Chesapeake","United States",36.6778,-76.3024,244835
"Chester","United Kingdom",53.1900,-2.8900,79645
"Chetumal","Mexico",18.5036,-88.3053,151243
"Cheyenne","United States",41.1351,-104.7900,79484
"Chełm","Poland",51.1333,23.4833,61588
"Chiang Mai","Thailand",18.7889,98.9833,132634
"Chiang Rai","Thailand",19.9094,99.8275,70610
"Chiayi","Taiwan",23.4800,120.4497,268622
"Chiba","Japan",35.6000,140.1000,981738
"Chibuto","Mozambique",-24.6867,33.5306,58012
"Chicacole","India",18.3000,83.9000,137944
"Chicago","United States",41.8373,-87.6862,8604203
"Chichibu","Japan",35.9917,139.0856,59101
"Chichicastenango","Guatemala",14.9442,-91.1105,107193
"Chiclana de la Frontera","Spain",36.4167,-6.1500,85150
"Chiclayo","Peru",-6.7630,-79.8366,552508
"Chico","United States",39.7575,-121.8152,117668
"Chicoloapan","Mexico",19.4167,-98.9000,175053
"Chicopee","United States",42.1764,-72.5719,55126
"Chieti","Italy",42.3511,14.1674,50770
"Chifeng","China",42.2663,118.9223,4376600
"Chigasaki","Japan",35.3339,139.4047,242347
"Chigorodó","Colombia",7.6697,-76.6814,84183
"Chiguayante","Chile",-36.9167,-73.0167,85863
"Chihuahua","Mexico",28.6353,-106.0889,878062
"Chikusei","Japan",36.3072,139.9831,99758
"Chilakalūrupet","India",16.0892,80.1672,101398
"Chilapa de Álvarez","Mexico",17.5944,-99.1778,120790
"Chililabombwe","Zambia",-12.3667,27.8333,90530
"Chilliwack","Canada",49.1577,-121.9509,83788
"Chillán","Chile",-36.6067,-72.1033,164270
"Chilpancingo","Mexico",17.5500,-99.5000,187251
"Chimalhuacán","Mexico",19.4167,-98.9000,614453
"Chimbote","Peru",-9.0745,-78.5936,497875
"Chimoio","Mozambique",-19.1167,33.4500,238976
"Chinandega","Nicaragua",12.6242,-87.1297,151707
"Chinautla","Guatemala",14.7029,-90.5000,77071
"Chincha Alta","Peru",-13.4500,-76.1333,63671
"Chinchvad","India",18.6278,73.8131,1729320
"Chingford","United Kingdom",51.6310,0.0160,66211
"Chingola","Zambia",-12.5447,27.8708,147448
"Chinguar","Angola",-12.5500,16.3333,129370
"Chinhoyi","Zimbabwe",-17.3500,30.2000,56794
"Chini","China",23.3916,113.0755,56609
"Chiniot","Pakistan",31.7167,72.9833,477781
"Chinju","Korea, South",35.1928,128.0847,337230
"Chino","Japan",35.9956,138.1589,55018
"Chino","United States",33.9836,-117.6654,94371
"Chino Hills","United States",33.9508,-117.7253,83853
"Chinú","Colombia",9.1097,-75.3981,50313
"Chipata","Zambia",-13.6386,32.6453,98416
"Chiquimula","Guatemala",14.7833,-89.5333,79815
"Chiquinquirá","Colombia",5.6175,-73.8164,85274
"Chirchiq","Uzbekistan",41.4667,69.5833,159400
"Chiryū","Japan",35.0000,137.1167,71907
"Chisec","Guatemala",15.8125,-90.3217,69325
"Chishtian","Pakistan",29.7958,72.8578,101659
"Chishui","China",28.5902,105.6946,237052
"Chisinau","Moldova",47.0228,28.8353,639000
"Chistopol","Russia",55.3648,50.6407,62200
"Chita","Japan",35.0000,136.8667,83881
"Chita","Russia",52.0333,113.5000,347088
"Chittaurgarh","India",24.8894,74.6239,116406
"Chittoor","India",13.2000,79.1167,160722
"Chitungwiza","Zimbabwe",-18.0000,31.1000,340360
"Chivilcoy","Argentina",-34.9000,-60.0167,54514
"Chizhou","China",30.6583,117.4849,1430000
"Chlef","Algeria",36.1647,1.3317,155134
"Chokwé","Mozambique",-24.5333,32.9833,63695
"Cholet","France",47.0600,-0.8783,53917
"Choloma","Honduras",15.6333,-88.0000,510456
"Cholula de Rivadabia","Mexico",19.0633,-98.3064,193554
"Chone","Ecuador",-0.6833,-80.1000,52810
"Chongqing","China",29.5628,106.5528,7739000
"Chongshan","China",18.7787,109.5117,107100
"Chongzuo","China",22.4167,107.3667,1994285
"Chornomorsk","Ukraine",46.3017,30.6569,59800
"Chorzów","Poland",50.3000,18.9500,111536
"Chosica","Peru",-11.9361,-76.6972,88606
"Chota","Peru",-6.5614,-78.6486,54611
"Christchurch","New Zealand",-43.5309,172.6365,377200
"Chula Vista","United States",32.6281,-117.0145,274492
"Chulucanas","Peru",-5.1092,-80.1625,68835
"Chuncheon","Korea, South",37.8747,127.7342,281596
"Chungju","Korea, South",36.9706,127.9322,211005
"Chunian","Pakistan",30.9639,73.9803,64386
"Chuxiong","China",25.0461,101.5436,588620
"Chuzhou","China",32.3062,118.3115,4110000
"Châteauguay","Canada",45.3800,-73.7500,70812
"Châu Đốc","Vietnam",10.7000,105.1167,157298
"Chía","Colombia",4.8633,-74.0528,97896
"Chābahār","Iran",25.2836,60.6236,106739
"Chānda","India",19.9500,79.3000,595118
"Chārīkār","Afghanistan",35.0183,69.1679,53676
"Chīrāla","India",15.8200,80.3500,172826
"Chōfugaoka","Japan",35.6506,139.5408,240359
"Chŏngju","Korea, North",39.6500,125.3333,189742
"Ch’ungmu","Korea, South",34.8458,128.4236,137208
"Ch’ŏnan","Korea, South",36.8064,127.1522,651661
"Ch’ŏngjin","Korea, North",41.8000,129.7831,667929
"Cianorte","Brazil",-23.6628,-52.6050,83816
"Cicero","United States",41.8445,-87.7593,80796
"Cidade de Nacala","Mozambique",-14.5500,40.6833,206449
"Ciego de Ávila","Cuba",21.8481,-78.7631,143449
"Cienfuegos","Cuba",22.1456,-80.4364,164924
"Cilacap","Indonesia",-7.7167,109.0170,1174964
"Cilegon","Indonesia",-6.0027,106.0112,387543
"Cimahi","Indonesia",-6.8833,107.5333,586580
"Cincinnati","United States",39.1413,-84.5061,1662691
"Cinisello Balsamo","Italy",45.5500,9.2167,75723
"Cirebon","Indonesia",-6.7167,108.5667,316126
"Citrus Heights","United States",38.6948,-121.2880,87796
"City of Calamba","Philippines",14.2167,121.1667,454486
"City of Isabela","Philippines",6.7000,121.9667,112788
"City of Parañaque","Philippines",14.4667,121.0167,665822
"Ciudad Acuña","Mexico",29.3242,-100.9317,216099
"Ciudad Apodaca","Mexico",25.7833,-100.1833,523370
"Ciudad Benito Juárez","Mexico",25.6500,-100.0833,260683
"Ciudad Bolívar","Venezuela",8.1167,-63.5500,567953
"Ciudad Choluteca","Honduras",13.3167,-87.2167,120000
"Ciudad Cuauhtémoc","Mexico",22.1833,-97.8333,57646
"Ciudad General Belgrano","Argentina",-34.7261,-58.5289,92957
"Ciudad General Escobedo","Mexico",25.7933,-100.1583,363436
"Ciudad Guayana","Venezuela",8.3596,-62.6517,751331
"Ciudad Hidalgo","Mexico",19.6923,-100.5574,122619
"Ciudad Lerdo","Mexico",25.5500,-103.5167,79669
"Ciudad Lázaro Cárdenas","Mexico",17.9561,-102.1922,79200
"Ciudad López Mateos","Mexico",19.5500,-99.2833,489937
"Ciudad Madero","Mexico",22.2500,-97.8333,209175
"Ciudad Mante","Mexico",22.7333,-98.9500,112061
"Ciudad Nezahualcóyotl","Mexico",19.4100,-99.0300,1109363
"Ciudad Obregón","Mexico",27.4939,-109.9389,405000
"Ciudad Ojeda","Venezuela",10.2000,-71.3000,122124
"Ciudad Río Bravo","Mexico",25.9861,-98.0889,101481
"Ciudad Santa Catarina","Mexico",25.6833,-100.4500,259896
"Ciudad Valles","Mexico",21.9833,-99.0167,176935
"Ciudad Victoria","Mexico",23.7333,-99.1333,305155
"Ciudad de Atlixco","Mexico",18.9000,-98.4500,125000
"Ciudad de Ceuta","Spain",35.8867,-5.3000,84202
"Ciudad de Huajuapam de León","Mexico",17.8039,-97.7758,77547
"Ciudad de Melilla","Spain",35.2937,-2.9383,141308
"Ciudad de la Costa","Uruguay",-34.8167,-55.9500,112449
"Ciudad del Carmen","Mexico",18.6333,-91.8333,169466
"Ciudad del Este","Paraguay",-25.5167,-54.6167,304282
"Civitavecchia","Italy",42.1000,11.8000,51595
"Cizre","Turkey",37.3250,42.1958,143124
"Ciénaga","Colombia",11.0104,-74.2500,131171
"Ciénaga de Oro","Colombia",8.8750,-75.6211,64226
"Clacton-on-Sea","United Kingdom",51.7918,1.1457,56874
"Clamart","France",48.8014,2.2628,52971
"Clarington","Canada",43.9350,-78.6083,92013
"Clarkstown","United States",41.1319,-73.9660,86488
"Clarksville","United States",36.5695,-87.3420,188746
"Clay","United States",43.1809,-76.1955,59364
"Clearwater","United States",27.9789,-82.7622,116946
"Clermont-Ferrand","France",45.7831,3.0824,143886
"Cleveland","United States",35.1817,-84.8707,73596
"Cleveland","United States",41.4767,-81.6804,1710093
"Clichy","France",48.9044,2.3064,61070
"Clifton","United States",40.8631,-74.1575,85052
"Clovis","United States",36.8278,-119.6831,114584
"Cluj-Napoca","Romania",46.7667,23.6000,316748
"Coacalco","Mexico",19.6333,-99.0931,278064
"Coari","Brazil",-4.0850,-63.1408,83078
"Coatepec","Mexico",19.4553,-96.9586,92127
"Coatepeque","Guatemala",14.7000,-91.8667,300000
"Coatzacoalcos","Mexico",18.1500,-94.4333,319187
"Cobán","Guatemala",15.4833,-90.3667,310102
"Cochabamba","Bolivia",-17.3935,-66.1570,632013
"Coconut Creek","United States",26.2803,-80.1842,61248
"Codó","Brazil",-4.4550,-43.8858,118038
"Coeur d'Alene","United States",47.7041,-116.7935,116834
"Coffs Harbour","Australia",-30.3022,153.1189,71822
"Cogan","Philippines",10.5833,123.9667,51325
"Coimbatore","India",11.0000,76.9667,959823
"Coimbra","Portugal",40.2111,-8.4291,143396
"Colatina","Brazil",-19.5389,-40.6308,111788
"Colchester","United Kingdom",51.8917,0.9030,111921
"Colima","Mexico",19.2433,-103.7247,137383
"Colina","Chile",-33.2000,-70.6833,146207
"Collado-Villalba","Spain",40.6333,-4.0083,64378
"College Station","United States",30.5852,-96.2960,215243
"Collierville","United States",35.0471,-89.6988,51040
"Colmar","France",48.0817,7.3556,69105
"Colmenar Viejo","Spain",40.6589,-3.7658,51938
"Cologne","Germany",50.9422,6.9578,1085664
"Colombes","France",48.9236,2.2522,85177
"Colombo","Brazil",-25.2919,-49.2239,246540
"Colombo","Sri Lanka",6.9167,79.8333,752993
"Colonia del Sol","Mexico",22.9125,-109.9208,64055
"Colonie","United States",42.7396,-73.7874,82849
"Colorado Springs","United States",38.8674,-104.7606,642413
"Colton","United States",34.0538,-117.3254,54824
"Columbia","United States",34.0376,-80.9037,560041
"Columbia","United States",38.9478,-92.3256,141645
"Columbia","United States",39.2004,-76.8590,103991
"Columbus","United States",32.5100,-84.8771,261445
"Columbus","United States",39.2093,-85.9183,59897
"Columbus","United States",39.9862,-82.9850,1562009
"Colón","Cuba",22.7225,-80.9067,72000
"Colón","El Salvador",13.7167,-89.3667,96989
"Colón","Panama",9.3598,-79.9004,241817
"Comayagua","Honduras",14.4600,-87.6500,144785
"Comayagüela","Honduras",14.0833,-87.2167,1250000
"Comilla","Bangladesh",23.4500,91.2000,296010
"Comitancillo","Guatemala",15.0906,-91.7486,59357
"Comitán","Mexico",16.2511,-92.1342,170000
"Commerce City","United States",39.8642,-104.8434,60336
"Como","Italy",45.8103,9.0861,83320
"Comodoro Rivadavia","Argentina",-45.8667,-67.5000,730266
"Comonfort","Mexico",20.7167,-100.7667,67642
"Compostela","Philippines",7.6667,126.0833,87474
"Compton","United States",33.8930,-118.2275,95605
"Conakry","Guinea",9.5092,-13.7122,1667864
"Conceição do Coité","Brazil",-11.5639,-39.2828,68146
"Concepcion","Philippines",15.3249,120.6554,154188
"Concepción","Chile",-36.8200,-73.0445,889725
"Concepción","Paraguay",-23.4025,-57.4414,87215
"Concepción Tutuapa","Guatemala",15.2833,-91.7833,59063
"Concepción del Uruguay","Argentina",-32.4833,-58.2333,72528
"Concord","United States",35.3933,-80.6366,261801
"Concord","United States",37.9722,-122.0016,652308
"Concordia","Argentina",-31.3922,-58.0169,149450
"Concórdia","Brazil",-27.2339,-52.0278,75167
"Congonhas","Brazil",-20.5000,-43.8578,55309
"Conjeeveram","India",12.8308,79.7078,164384
"Conroe","United States",30.3239,-95.4825,91079
"Conselheiro Lafaiete","Brazil",-20.6600,-43.7858,129606
"Consolacion","Philippines",10.4000,123.9500,131528
"Consolación del Sur","Cuba",22.5083,-83.5172,87500
"Constantine","Algeria",36.3650,6.6147,448374
"Constanza","Dominican Republic",18.9100,-70.7500,59052
"Constanţa","Romania",44.1733,28.6383,283872
"Contagem","Brazil",-19.9319,-44.0539,648766
"Contramaestre","Cuba",20.3000,-76.2506,106002
"Conway","United States",35.0754,-92.4694,74951
"Cookeville","United States",36.1484,-85.5114,50408
"Coon Rapids","United States",45.1755,-93.3095,62998
"Copacabana","Colombia",6.3486,-75.5103,73574
"Copenhagen","Denmark",55.6761,12.5689,602481
"Copiapó","Chile",-27.3665,-70.3323,150804
"Coquimbo","Chile",-29.9532,-71.3380,204068
"Coquitlam","Canada",49.2839,-122.7919,139284
"Coral Springs","United States",26.2702,-80.2591,133759
"Corbeil-Essonnes","France",48.6139,2.4820,51292
"Corby","United Kingdom",52.4914,-0.6965,54927
"Cork","Ireland",51.9000,-8.4731,208669
"Coro","Venezuela",11.3950,-69.6816,284266
"Coroatá","Brazil",-4.1300,-44.1239,61725
"Coron","Philippines",12.0000,120.2000,51803
"Corona","United States",33.8616,-117.5649,169868
"Coronel","Chile",-37.0167,-73.1333,116262
"Coronel Fabriciano","Brazil",-19.5189,-42.6289,110290
"Coronel Oviedo","Paraguay",-25.4500,-56.4400,88101
"Corozal","Colombia",9.3169,-75.2933,70853
"Corpus Christi","United States",27.7260,-97.3755,342464
"Corrientes","Argentina",-27.4833,-58.8167,352646
"Cortazar","Mexico",20.4830,-100.9330,57748
"Corumbá","Brazil",-19.0089,-57.6528,112058
"Corvallis","United States",44.5697,-123.2780,67467
"Cosamaloapan","Mexico",18.3667,-95.8000,57147
"Cosenza","Italy",39.3000,16.2500,67239
"Cosmópolis","Brazil",-22.6458,-47.1961,66807
"Costa Mesa","United States",33.6667,-117.9135,113003
"Cotabato","Philippines",7.2167,124.2500,299438
"Cotia","Brazil",-23.6039,-46.9189,229548
"Cotonou","Benin",6.4000,2.5200,762000
"Cottbus","Germany",51.7606,14.3342,100219
"Cotuí","Dominican Republic",19.0600,-70.1500,79596
"Council Bluffs","United States",41.2369,-95.8517,62166
"Country Club","United States",25.9407,-80.3102,50431
"Courbevoic","France",48.8978,2.2531,81719
"Courcouronnes","France",48.6239,2.4294,67967
"Coventry","United Kingdom",52.4081,-1.5106,362690
"Covilhã","Portugal",40.2833,-7.5000,51797
"Coyhaique","Chile",-45.5712,-72.0685,61210
"Cozumel","Mexico",20.5104,-86.9493,77236
"Craiova","Romania",44.3333,23.8167,269506
"Cranbourne","Australia",-38.0996,145.2834,460491
"Cranston","United States",41.7658,-71.4857,81456
"Crateús","Brazil",-5.1778,-40.6778,72812
"Crato","Brazil",-7.2342,-39.4094,273883
"Crato","Brazil",-7.4639,-63.0400,273883
"Crawley","United Kingdom",51.1092,-0.1872,106597
"Cremona","Italy",45.1333,10.0333,72077
"Crewe","United Kingdom",53.0990,-2.4400,71722
"Criciúma","Brazil",-28.6775,-49.3697,211369
"Cristalina","Brazil",-16.7689,-47.6139,60210
"Crosby","United Kingdom",53.4872,-3.0343,50044
"Crotone","Italy",39.0833,17.1167,63941
"Croydon","United Kingdom",51.3727,-0.1099,192064
"Cruz Alta","Brazil",-28.6386,-53.6064,62821
"Cruz das Almas","Brazil",-12.6700,-39.1019,64197
"Cruz del Eje","Argentina",-30.7333,-64.8000,52172
"Cruzeiro do Sul","Brazil",-7.6308,-72.6700,82622
"Créteil","France",48.7911,2.4628,90605
"Cuamba","Mozambique",-14.8200,36.5486,73268
"Cuauhtémoc","Mexico",28.4050,-106.8667,168482
"Cuautitlán","Mexico",19.6833,-99.1833,110385
"Cuautitlán Izcalli","Mexico",19.6500,-99.2500,511675
"Cuautla","Mexico",18.8167,-98.9500,175208
"Cubal","Angola",-13.0333,14.2333,357618
"Cubatão","Brazil",-23.8953,-46.4256,127006
"Cuddalore","India",11.7500,79.7500,173676
"Cuddapah","India",14.4667,78.8167,344893
"Cuenca","Ecuador",-2.8974,-79.0045,329928
"Cuenca","Spain",40.0667,-2.1500,54621
"Cuernavaca","Mexico",18.9186,-99.2342,366321
"Cuiabá","Brazil",-15.5958,-56.0969,618124
"Cuito","Angola",-12.3833,16.9333,114000
"Cui’erzhuang","China",38.2897,116.5472,56096
"Cukai","Malaysia",4.2332,103.4479,82425
"Culiacán","Mexico",24.8069,-107.3939,785800
"Cumaná","Venezuela",10.4500,-64.1667,374706
"Cumbernauld","United Kingdom",55.9450,-3.9940,50430
"Cunduacán","Mexico",18.0667,-93.1667,81392
"Cuneo","Italy",44.3833,7.5500,56281
"Cupertino","United States",37.3168,-122.0465,59276
"Curepipe","Mauritius",-20.3162,57.5166,299975
"Curicó","Chile",-34.9800,-71.2400,113711
"Curitiba","Brazil",-25.4297,-49.2719,1879355
"Curvelo","Brazil",-18.7564,-44.4308,63954
"Cuscatancingo","El Salvador",13.7333,-89.1833,66400
"Cusco","Peru",-13.5183,-71.9781,428450
"Cuttack","India",20.4500,85.8667,606007
"Cuyapo","Philippines",15.7833,120.6667,65039
"Cuyotenango","Guatemala",14.5421,-91.5723,50860
"Częstochowa","Poland",50.8096,19.1222,228179
"Cà Mau","Vietnam",9.1833,105.1500,315270
"Cáceres","Brazil",-16.0711,-57.6789,91271
"Cáceres","Spain",39.4833,-6.3667,96255
"Cádiz","Spain",36.5350,-6.2975,115439
"Cárdenas","Mexico",17.9830,-93.3670,79875
"Córdoba","Argentina",-31.4167,-64.1833,1329604
"Córdoba","Mexico",18.8942,-96.9347,218153
"Córdoba","Spain",37.8845,-4.7796,321376
"Cúa","Venezuela",10.1667,-66.8833,214823
"Cúcuta","Colombia",7.9075,-72.5047,750000
"Călăraşi","Romania",44.2000,27.3333,65181
"Cần Thơ","Vietnam",10.0333,105.7833,1237300
"Cẩm Phả","Vietnam",21.0094,107.2728,156000
"Daanbantayan","Philippines",11.3333,124.0167,84430
"Dabou","Côte D’Ivoire",5.3256,-4.3767,72913
"Dadu","Pakistan",26.7319,67.7750,146179
"Dadukou","China",26.5849,101.7149,1144000
"Daegu","Korea, South",35.8667,128.6000,2461002
"Daejeon","Korea, South",36.3510,127.3850,1475221
"Daet","Philippines",14.1167,122.9500,104799
"Dagenham","United Kingdom",51.5397,0.1422,106247
"Dagupan City","Philippines",16.0333,120.3333,171271
"Dahuaishu","China",36.2601,111.6743,151037
"Dahūk","Iraq",36.8500,42.9833,330600
"Daisen","Japan",39.4531,140.4756,76164
"Daitōchō","Japan",34.7119,135.6233,118799
"Dajabón","Dominican Republic",19.5667,-71.7100,62046
"Dakar","Senegal",14.7319,-17.4572,1146053
"Dalaguete","Philippines",9.7612,123.5349,67497
"Dalai","China",45.5050,124.2863,418232
"Dale City","United States",38.6473,-77.3459,72627
"Dali","China",25.7003,100.1564,652045
"Dali","China",34.7953,109.9378,109696
"Dalian","China",38.9000,121.6000,4480000
"Dallas","United States",32.7936,-96.7662,5743938
"Daloa","Côte D’Ivoire",6.8900,-6.4500,255168
"Dalton","United States",34.7690,-84.9712,86628
"Daly City","United States",37.6862,-122.4685,106280
"Dam Dam","India",22.6200,88.4200,114786
"Damanhūr","Egypt",31.0500,30.4667,244043
"Damascus","Syria",33.5131,36.2919,1754000
"Damaturu","Nigeria",11.7500,11.9667,255895
"Damietta","Egypt",31.4167,31.8214,206664
"Danao","Philippines",10.5333,123.9333,136471
"Danbury","United States",41.4016,-73.4710,176030
"Dandarah","Egypt",26.1422,32.6697,53109
"Dandong","China",40.1167,124.3833,2400000
"Dangyang","China",30.8258,111.7910,560000
"Danjiangkou","China",32.5408,111.5098,443755
"Danyang","China",31.9948,119.5750,980662
"Daphne","United States",30.6286,-87.8866,71484
"Dapitan","Philippines",8.6549,123.4243,82418
"Daqing","China",46.5979,125.0080,2904532
"Dar es Salaam","Tanzania",-6.8000,39.2833,6698000
"Daraga","Philippines",13.1619,123.6939,126595
"Darhan","Mongolia",49.4867,105.9228,74738
"Darhan","Mongolia",49.6167,106.3500,74738
"Darjeeling","India",27.0417,88.2631,118805
"Darlington","United Kingdom",54.5270,-1.5526,105564
"Darmstadt","Germany",49.8667,8.6500,159207
"Darnah","Libya",32.7648,22.6391,127974
"Darwin","Australia",-12.4381,130.8411,136828
"Dar‘ā","Syria",32.6250,36.1050,146481
"Dashiqiao","China",40.6328,122.5021,704891
"Dasmariñas","Philippines",14.3294,120.9367,659019
"Datang","China",22.9476,113.9326,310889
"Daugavpils","Latvia",55.8714,26.5161,80627
"Daule","Ecuador",-1.8667,-79.9833,65145
"Davangere","India",14.4667,75.9167,503564
"Davao","Philippines",7.0667,125.6000,1632991
"Davenport","United States",41.5563,-90.6052,285362
"David","Panama",8.4333,-82.4333,144858
"Davie","United States",26.0789,-80.2870,106306
"Davis","United States",38.5552,-121.7365,76997
"Dawei","Myanmar",14.0367,98.1867,139900
"Daxincun","China",38.4430,106.3090,76536
"Dayan","China",26.8808,100.2208,1244769
"Daye","China",30.1003,114.9699,909724
"Dayin","China",38.9358,115.7102,53868
"Dayr az Zawr","Syria",35.3333,40.1500,1918000
"Dayton","United States",39.7797,-84.1998,718353
"Daytona Beach","United States",29.1994,-81.0982,69186
"Dazhou","China",31.2152,107.4947,5693000
"Daşoguz","Turkmenistan",41.8167,59.9831,227184
"DeKalb","United States",41.9313,-88.7482,66959
"DeSoto","United States",32.5992,-96.8633,52988
"Dearborn","United States",42.3127,-83.2129,93932
"Dearborn Heights","United States",42.3164,-83.2769,55353
"Debre Birhan","Ethiopia",9.6804,39.5300,65231
"Debre Mark’os","Ethiopia",10.3400,37.7200,70758
"Debre Zeyit","Ethiopia",8.7500,38.9833,99928
"Debrecen","Hungary",47.5300,21.6392,201432
"Decatur","United States",34.5730,-86.9906,68867
"Decatur","United States",39.8556,-88.9337,87236
"Deerfield Beach","United States",26.3050,-80.1277,81066
"Dehra Dūn","India",30.3180,78.0290,578420
"Dehui","China",44.5323,125.6965,839786
"Delano","United States",35.7670,-119.2637,54917
"Delft","Netherlands",52.0119,4.3594,100011
"Delgado","El Salvador",13.7167,-89.1667,120200
"Delhi","India",28.6600,77.2300,29617000
"Delicias","Mexico",28.1931,-105.4717,148045
"Delmas","Haiti",18.5500,-72.3000,284079
"Delmenhorst","Germany",53.0506,8.6317,77607
"Delray Beach","United States",26.4550,-80.0905,69451
"Delta","Canada",49.0847,-123.0586,102238
"Deltona","United States",28.9050,-81.2137,198361
"Den Helder","Netherlands",52.9583,4.7589,55604
"Dengtacun","China",41.4200,123.3300,496122
"Dengtalu","China",36.0800,114.3500,887000
"Denizli","Turkey",37.7731,29.0878,963464
"Denov","Uzbekistan",38.2772,67.8872,217274
"Denpasar","Indonesia",-8.6667,115.2167,834881
"Denton","United States",33.2176,-97.1419,457177
"Denver","United States",39.7621,-104.8759,2876625
"Deo","India",24.6561,84.4356,173216
"Depok","Indonesia",-6.3940,106.8225,1631951
"Dera Ghazi Khan","Pakistan",30.0500,70.6333,399064
"Dera Ismail Khan","Pakistan",31.8167,70.9167,109686
"Derbent","Russia",42.0692,48.2958,123720
"Derby","United Kingdom",52.9167,-1.4667,270500
"Derik","Turkey",37.3644,40.2689,61830
"Derry","United Kingdom",54.9917,-7.3417,85016
"Des Moines","United States",41.5725,-93.6105,473957
"Des Plaines","United States",42.0345,-87.9009,58899
"Dessau-Roßlau","Germany",51.8333,12.2333,81237
"Desē","Ethiopia",11.1333,39.6333,187900
"Detmold","Germany",51.9378,8.8833,74388
"Detroit","United States",42.3834,-83.1024,3506126
"Deva","Romania",45.8719,22.9117,61123
"Deventer","Netherlands",52.2500,6.2000,99166
"Dewsbury","United Kingdom",53.6910,-1.6330,62945
"Deyang","China",31.1289,104.3950,3877000
"Dezfūl","Iran",32.3878,48.4033,264709
"Dezhou","China",37.4513,116.3105,5470000
"Dhahran","Saudi Arabia",26.2667,50.1500,138135
"Dhaka","Bangladesh",23.7289,90.3944,15443000
"Dhamār","Yemen",14.5500,44.4017,160114
"Dhanbād","India",23.7928,86.4350,1246000
"Dhangaḍhi̇̄","Nepal",28.6833,80.6000,101970
"Dharmavaram","India",14.4142,77.7150,121874
"Dharān","Nepal",26.8167,87.2667,116181
"Dholka","India",22.7200,72.4700,53792
"Dhūlia","India",20.9000,74.7833,479073
"Diadema","Brazil",-23.6858,-46.6228,412428
"Diamond Bar","United States",33.9991,-117.8161,55720
"Dias d’Ávila","Brazil",-12.6128,-38.2969,78058
"Dibrugarh","India",27.4833,95.0000,154019
"Dieppe","Canada",46.0989,-64.7242,107068
"Diffun","Philippines",16.6000,121.4667,52569
"Digos","Philippines",6.7500,125.3500,169393
"Dijon","France",47.3167,5.0167,156920
"Dili","Timor-Leste",-8.5586,125.5736,222323
"Dimbokro","Côte D’Ivoire",6.6505,-4.7100,67349
"Dimitrovgrad","Russia",54.2333,49.5833,116055
"Dinalupihan","Philippines",14.8833,120.4667,106371
"Dindigul","India",10.3500,77.9500,207327
"Dingcheng","China",19.6819,110.3637,86367
"Dingxi","China",35.5806,104.6263,2930000
"Dingzhou","China",38.5158,114.9845,1165182
"Dinslaken","Germany",51.5667,6.7333,67525
"Diourbel","Senegal",14.6550,-16.2314,100445
"Dipalpur","Pakistan",30.6708,73.6533,87176
"Dipolog","Philippines",8.5667,123.3333,130759
"Dire Dawa","Ethiopia",9.5833,41.8667,277000
"Diriamba","Nicaragua",11.8500,-86.2333,57512
"Dispur","India",26.1500,91.7700,957352
"Disūq","Egypt",31.1308,30.6479,143404
"Divinópolis","Brazil",-20.1389,-44.8839,240408
"Divo","Côte D’Ivoire",5.8372,-5.3572,127867
"Diyarbakır","Turkey",37.9108,40.2367,1732396
"Djelfa","Algeria",34.6667,3.2500,265833
"Djemmal","Tunisia",35.6400,10.7600,70587
"Djibouti","Djibouti",11.5950,43.1481,562000
"Djougou","Benin",9.7004,1.6800,202810
"Dmitrov","Russia",56.3500,37.5333,84408
"Dnipro","Ukraine",48.4500,34.9833,1002111
"Doboj","Bosnia And Herzegovina",44.7333,18.1333,68514
"Dobrich","Bulgaria",43.5667,27.8333,104530
"Dodoma","Tanzania",-6.1835,35.7460,410956
"Doha","Qatar",25.3000,51.5333,1312947
"Dolgoprudnyy","Russia",55.9333,37.5000,108861
"Dolisie","Congo (Brazzaville)",-4.1961,12.6731,103894
"Dolores Hidalgo Cuna de la Independencia Nacional","Mexico",21.1516,-100.9369,148173
"Domodedovo","Russia",55.4333,37.7500,127850
"Don Carlos","Philippines",7.6833,125.0000,66959
"Doncaster","United Kingdom",53.5150,-1.1330,109805
"Dondo","Mozambique",-19.6167,34.7500,78648
"Donetsk","Ukraine",48.0089,37.8042,929063
"Dongchuan","China",25.5086,101.2356,88481
"Dongcun","China",38.2800,111.6751,59772
"Dongguan","China",23.0475,113.7493,7981000
"Dongguan","China",39.0140,111.0768,75135
"Dongguazhen","China",25.0790,101.5020,103115
"Donghua","China",35.2175,106.6545,189333
"Dongning","China",44.0608,131.1187,210000
"Dongsheng","China",22.6225,113.2887,117976
"Dongsheng","China",22.8869,113.4563,147228
"Dongtai","China",32.8534,120.3037,990306
"Dongxing","China",21.5833,108.0500,144709
"Dongyang","China",29.2785,120.2282,804398
"Donostia","Spain",43.3200,-1.9800,188240
"Donskoy","Russia",53.9667,38.3167,63631
"Doral","United States",25.8151,-80.3565,65741
"Dormagen","Germany",51.0964,6.8400,64335
"Dorsten","Germany",51.6600,6.9642,74736
"Dortmund","Germany",51.5139,7.4653,587010
"Dorūd","Iran",33.4933,49.0750,121608
"Dos Hermanas","Spain",37.2836,-5.9222,135050
"Dosquebradas","Colombia",4.8361,-75.6761,179301
"Dothan","United States",31.2335,-85.4069,72396
"Douala","Cameroon",4.0500,9.7000,2446945
"Douliu","Taiwan",23.7075,120.5439,106653
"Dourados","Brazil",-22.2208,-54.8058,225495
"Dover","United States",39.1610,-75.5203,117282
"Dover","United States",43.1887,-70.8845,94563
"Dovzhansk","Ukraine",48.0846,39.6516,95153
"Downey","United States",33.9379,-118.1312,111126
"Doğubayazıt","Turkey",39.5500,44.0833,121263
"Drammen","Norway",59.7439,10.2045,117510
"Drancy","France",48.9300,2.4500,71318
"Dresden","Germany",51.0500,13.7400,556549
"Drobeta-Turnu Severin","Romania",44.6361,22.6556,92617
"Drohobych","Ukraine",49.3500,23.5000,124269
"Drug","India",21.1900,81.2800,268806
"Drummondville","Canada",45.8833,-72.4833,68601
"Druzhkivka","Ukraine",48.6203,37.5278,59400
"Dschang","Cameroon",5.4500,10.0500,76524
"Dubai","United Arab Emirates",25.2697,55.3094,2502715
"Dublin","Ireland",53.3497,-6.2603,1173179
"Dublin","United States",37.7161,-121.8963,64826
"Dubna","Russia",56.7500,37.1500,75144
"Dubuque","United States",42.5008,-90.7067,68109
"Ducheng","China",23.2445,111.5342,85659
"Dudley","United Kingdom",52.5080,-2.0890,79379
"Duisburg","Germany",51.4322,6.7611,498590
"Duitama","Colombia",5.8219,-73.0297,126670
"Duluth","United States",46.7756,-92.1392,119476
"Dumaguete City","Philippines",9.3103,123.3081,131377
"Dumai","Indonesia",1.6667,101.4500,264084
"Dumangas","Philippines",10.8333,122.7167,69108
"Dumanjog","Philippines",10.0500,123.4833,51210
"Dundalk","United States",39.2703,-76.4942,63015
"Dundee","United Kingdom",56.4620,-2.9707,148270
"Dunedin","New Zealand",-45.8667,170.5000,106200
"Dunfermline","United Kingdom",56.0719,-3.4393,54050
"Dunhua","China",43.3667,128.2333,483811
"Dunhuang","China",40.1411,94.6616,186027
"Dunkerque","France",51.0383,2.3775,87353
"Durango","Mexico",24.0167,-104.6667,654876
"Durban","South Africa",-29.8583,31.0250,595061
"Durgāpur","India",23.5500,87.3200,566517
"Durham","United States",35.9794,-78.9031,424700
"Durrës","Albania",41.3167,19.4500,142432
"Dushanbe","Tajikistan",38.5731,68.7864,778500
"Dutse","Nigeria",11.8283,9.3158,153000
"Duyun","China",26.2672,107.5143,493574
"Dzerzhinsk","Russia",56.2333,43.4500,231797
"Dzerzhinskiy","Russia",55.6333,37.8500,55669
"Düren","Germany",50.8000,6.4833,90733
"Düsseldorf","Germany",51.2311,6.7724,645923
"Düzce","Turkey",40.8417,31.1583,240633
"Dāmghān","Iran",36.1681,54.3481,57331
"Dārayyā","Syria",33.4589,36.2372,84044
"Dąbrowa Górnicza","Poland",50.3182,19.2374,122712
"Dĩ An","Vietnam",10.9039,106.7679,73859
"Dūmā","Syria",33.5722,36.4019,123494
"Eagan","United States",44.8169,-93.1638,66372
"Eagle Pass","United States",28.7125,-100.4840,55686
"Ealing","United Kingdom",51.5175,-0.2988,85014
"East Ham","United Kingdom",51.5323,0.0554,76186
"East Hartford","United States",41.7634,-72.6152,50272
"East Kilbride","United Kingdom",55.7645,-4.1771,75390
"East London","South Africa",-33.0153,27.9116,338627
"East Los Angeles","United States",34.0326,-118.1691,121187
"East Orange","United States",40.7651,-74.2117,64367
"East Stroudsburg","United States",41.0023,-75.1779,57577
"Eastbourne","United Kingdom",50.7700,0.2800,103745
"Eastvale","United States",33.9617,-117.5802,64157
"Eau Claire","United States",44.8199,-91.4949,107404
"Ebetsu","Japan",43.1039,141.5361,119819
"Ecatepec","Mexico",19.6097,-99.0600,1656107
"Echague","Philippines",16.7000,121.6500,79094
"Ed Damazin","Sudan",11.7704,34.3500,186051
"EdDamer","Sudan",17.5900,33.9600,103941
"Ede","Netherlands",52.0436,5.6667,72460
"Eden Prairie","United States",44.8488,-93.4595,64893
"Edgware","United Kingdom",51.6185,-0.2729,76506
"Edina","United States",44.8914,-93.3602,52857
"Edinburg","United States",26.3197,-98.1596,101170
"Edinburgh","United Kingdom",55.9530,-3.1890,488050
"Edirne","Turkey",41.6781,26.5594,180327
"Edison","United States",40.5360,-74.3697,100447
"Edmond","United States",35.6689,-97.4159,94054
"Edmonton","Canada",53.5344,-113.4903,1062643
"Edmonton","United Kingdom",51.6154,-0.0708,82472
"Edogawa","Japan",35.6924,139.8757,690457
"Edéa","Cameroon",3.8000,10.1333,122300
"Eger","Hungary",47.8989,20.3747,52898
"Eilat","Israel",29.5500,34.9500,51935
"Eindhoven","Netherlands",51.4408,5.4778,398053
"Ejmiatsin","Armenia",40.1728,44.2925,57500
"Ekibastuz","Kazakhstan",51.7298,75.3266,159760
"El Bagre","Colombia",7.6047,-74.8086,50863
"El Banco","Colombia",9.0008,-73.9744,55530
"El Bayadh","Algeria",33.6831,1.0192,85577
"El Cajon","United States",32.8017,-116.9605,102708
"El Carmen de Bolívar","Colombia",9.7167,-75.1167,78729
"El Centro","United States",32.7867,-115.5586,111425
"El Cuá","Nicaragua",13.3679,-85.6728,59307
"El Ejido","Spain",36.7831,-2.8167,83758
"El Eulma","Algeria",36.1528,5.6900,155038
"El Fasher","Sudan",13.6300,25.3500,252609
"El Geneina","Sudan",13.4500,22.4400,162981
"El Hamma","Tunisia",33.8864,9.7951,73512
"El Jadid","Morocco",33.2566,-8.5025,180470
"El Kef","Tunisia",36.1667,8.7000,73706
"El Kelaa des Srarhna","Morocco",32.0500,-7.4000,1450021
"El Limón","Venezuela",10.3059,-67.6321,106206
"El Milia","Algeria",36.7500,6.2667,83931
"El Monte","United States",34.0739,-118.0291,115487
"El Obeid","Sudan",13.1833,30.2167,418280
"El Oued","Algeria",33.3683,6.8675,134699
"El Paso","United States",31.8479,-106.4309,843386
"El Paso de Robles","United States",35.6394,-120.6560,70248
"El Prat de Llobregat","Spain",41.3246,2.0953,65385
"El Progreso","Honduras",15.4000,-87.8000,143360
"El Puerto de Santa María","Spain",36.6000,-6.2167,88703
"El Salvador","Philippines",8.5667,124.5167,50204
"El Seibo","Dominican Republic",18.7700,-69.0400,97144
"El Talar de Pacheco","Argentina",-34.4719,-58.6550,50426
"El Tigre","Venezuela",8.8858,-64.2611,213524
"Elazığ","Turkey",38.6667,39.2167,421726
"Elbasan","Albania",41.1125,20.0822,78703
"Elbląg","Poland",54.1667,19.4000,119317
"Elche","Spain",38.2669,-0.6983,234765
"Elda","Spain",38.4789,-0.7967,52813
"Eldoret","Kenya",0.5167,35.2833,193830
"Elektrostal","Russia",55.8000,38.4500,158508
"Elgin","United States",42.0385,-88.3229,110849
"Elista","Russia",46.3167,44.2667,103132
"Elizabeth","United States",40.6657,-74.1912,129216
"Elizabethtown","United States",37.7030,-85.8770,78002
"Elk Grove","United States",38.4160,-121.3842,174775
"Elkhart","United States",41.6916,-85.9628,147567
"Ellesmere Port","United Kingdom",53.2790,-2.8970,55715
"Ellicott City","United States",39.2773,-76.8344,72665
"Ellore","India",16.7000,81.1000,203780
"Elmira","United States",42.0938,-76.8097,62989
"Eloy Alfaro","Ecuador",-2.1733,-79.8311,230839
"Elyria","United States",41.3761,-82.1063,53757
"Embu-Guaçu","Brazil",-23.8322,-46.8114,67296
"Emmen","Netherlands",52.7833,6.9000,107471
"Emmiganūr","India",15.7333,77.4833,95149
"Encarnación","Paraguay",-27.3333,-55.8667,136308
"Encarnación de Díaz","Mexico",21.5167,-102.2333,53555
"Encheng","China",22.1879,112.3131,509700
"Encinitas","United States",33.0490,-117.2613,62709
"Ende","Indonesia",-8.8333,121.6500,77205
"Enerhodar","Ukraine",47.4989,34.6558,53567
"Enfield","United Kingdom",51.6522,-0.0808,132640
"Engels","Russia",51.4667,46.1167,264990
"Ensenada","Mexico",31.8578,-116.6058,522768
"Entebbe","Uganda",0.0500,32.4600,69958
"Enterprise","United States",36.0164,-115.2208,171108
"Enugu","Nigeria",6.4403,7.4942,715774
"Envigado","Colombia",6.1719,-75.5803,228848
"Epe","Nigeria",6.5833,4.0000,181409
"Erbil","Iraq",36.1911,44.0094,846000
"Ercolano","Italy",40.8068,14.3526,52763
"Erdenet","Mongolia",49.0333,104.0833,106810
"Erechim","Brazil",-27.6339,-52.2739,106633
"Ereğli","Turkey",37.5058,34.0517,145389
"Ereğli","Turkey",41.2583,31.4250,175605
"Erfurt","Germany",50.9787,11.0328,203254
"Erie","United States",42.1168,-80.0733,184484
"Erlangen","Germany",49.5964,11.0044,111962
"Erode","India",11.3408,77.7172,151184
"Errachidia","Morocco",31.9319,-4.4244,92374
"Erzincan","Turkey",39.7464,39.4914,157452
"Erzurum","Turkey",39.9097,41.2756,767848
"Es Senia","Algeria",35.6478,-0.6239,96928
